,City,Country,Lat,Lng,Max Temp,Humidity,Cloudiness,Wind Speed,Current Description
0,Carnarvon,AU,-24.8667,113.6333,62.67,63.00%,75.00%,13.8,broken clouds
1,Vagur,FO,61.4732,-6.8119,48.16,81.00%,100.00%,24.02,overcast clouds
2,Ushuaia,AR,-54.8,-68.3,46.02,65.00%,40.00%,26.46,light rain
3,Bluff,NZ,-46.6,168.3333,52.81,76.00%,24.00%,6.11,few clouds
4,Cape Town,ZA,-33.9258,18.4232,59.09,56.00%,0.00%,4.0,clear sky
5,Lithakia,GR,37.7167,20.8333,68.59,59.00%,0.00%,4.23,clear sky
6,Vila Franca Do Campo,PT,37.7167,-25.4333,75.2,86.00%,100.00%,3.78,overcast clouds
7,Ambatofinandrahana,MG,-20.55,46.8,60.96,79.00%,21.00%,2.89,few clouds
8,Fairhope,US,30.523,-87.9033,82.06,77.00%,40.00%,6.91,scattered clouds
9,Iqaluit,CA,63.7506,-68.5145,37.13,60.00%,75.00%,0.0,broken clouds
10,Chateau-Thierry,FR,49.05,3.4,60.93,65.00%,100.00%,11.12,overcast clouds
11,Horki,BY,54.2861,30.9842,43.09,93.00%,0.00%,8.84,clear sky
12,Sao Paulo De Olivenca,BR,-3.3783,-68.8725,84.72,70.00%,97.00%,4.72,light rain
13,Kapaa,US,22.0752,-159.319,81.19,72.00%,20.00%,3.0,light rain
14,Andenes,NO,69.3143,16.1194,49.98,71.00%,0.00%,12.66,clear sky
15,Hirara,JP,24.8,125.2833,82.89,67.00%,56.00%,19.95,broken clouds
16,Huarmey,PE,-10.0681,-78.1522,68.0,71.00%,20.00%,11.72,few clouds
17,Folldal,NO,62.1325,9.9968,42.33,91.00%,56.00%,10.31,broken clouds
18,Dunedin,NZ,-45.8742,170.5036,50.79,93.00%,100.00%,14.58,overcast clouds
19,Rikitea,PF,-23.1203,-134.9692,72.99,74.00%,100.00%,20.54,overcast clouds
20,Mahebourg,MU,-20.4081,57.7,69.26,94.00%,75.00%,14.97,light intensity shower rain
21,Ayan,RU,56.45,138.1667,37.9,60.00%,1.00%,14.94,clear sky
22,Jamestown,US,42.097,-79.2353,72.72,78.00%,75.00%,5.75,broken clouds
23,Mandalgovi,MN,45.7625,106.2708,36.19,46.00%,43.00%,11.07,scattered clouds
24,Ancud,CL,-41.8697,-73.8203,51.33,70.00%,100.00%,7.76,overcast clouds
25,Barrow,US,71.2906,-156.7887,26.62,80.00%,90.00%,11.5,overcast clouds
26,Punta Arenas,CL,-53.15,-70.9167,42.91,70.00%,90.00%,24.16,overcast clouds
27,Susanville,US,40.4163,-120.653,79.83,12.00%,1.00%,13.0,clear sky
28,Saint-Philippe,RE,-21.3585,55.7679,71.19,82.00%,57.00%,6.71,light rain
29,Serenje,ZM,-13.2325,30.2352,69.33,64.00%,81.00%,8.01,moderate rain
30,Tuktoyaktuk,CA,69.4541,-133.0374,30.2,86.00%,75.00%,10.36,light snow
31,Barrhead,GB,55.7992,-4.3929,49.96,94.00%,0.00%,2.3,clear sky
32,Lorengau,PG,-2.0226,147.2712,80.62,78.00%,100.00%,3.62,overcast clouds
33,Namibe,AO,-15.1961,12.1522,63.28,79.00%,2.00%,9.69,clear sky
34,Bengkulu,ID,-3.8004,102.2655,75.25,93.00%,100.00%,4.85,light rain
35,Hermanus,ZA,-34.4187,19.2345,54.81,81.00%,4.00%,19.42,clear sky
36,Novoagansk,RU,61.9449,76.6625,30.43,83.00%,100.00%,5.86,overcast clouds
37,Thompson,CA,55.7435,-97.8558,51.96,50.00%,75.00%,10.36,broken clouds
38,Bagdarin,RU,54.4333,113.6,28.4,84.00%,96.00%,3.0,overcast clouds
39,Ribeira Grande,PT,38.5167,-28.7,72.0,88.00%,40.00%,4.61,scattered clouds
40,Cayenne,GF,4.9333,-52.3333,86.04,75.00%,20.00%,5.01,few clouds
41,Poya,NC,-21.35,165.15,78.73,63.00%,0.00%,2.62,clear sky
42,Bowen,AU,-20.0167,148.2333,71.82,91.00%,27.00%,2.91,scattered clouds
43,Wanxian,CN,30.8039,108.3897,77.05,73.00%,1.00%,6.02,clear sky
44,Port Elizabeth,ZA,-33.918,25.5701,55.69,76.00%,20.00%,6.91,few clouds
45,Yellowknife,CA,62.456,-114.3525,41.41,99.00%,90.00%,4.61,mist
46,Mataura,NZ,-46.1927,168.8643,52.48,69.00%,42.00%,5.37,scattered clouds
47,Kahului,US,20.8947,-156.47,86.02,65.00%,20.00%,19.57,few clouds
48,Lebu,CL,-37.6167,-73.65,51.78,71.00%,36.00%,19.95,scattered clouds
49,Champerico,GT,14.3,-91.9167,91.94,72.00%,1.00%,6.71,clear sky
50,Beisfjord,NO,68.3751,17.5988,52.25,86.00%,46.00%,11.36,scattered clouds
51,Camocim,BR,-2.9022,-40.8411,80.42,76.00%,65.00%,19.19,broken clouds
52,Sindor,RU,62.8629,51.8905,32.79,93.00%,18.00%,4.85,few clouds
53,Guerrero Negro,MX,27.9769,-114.0611,81.79,44.00%,5.00%,12.19,clear sky
54,Porto Velho,BR,-8.7619,-63.9039,93.25,43.00%,40.00%,6.91,scattered clouds
55,Teruel,ES,40.6667,-0.6667,51.76,52.00%,0.00%,5.97,clear sky
56,Vaini,TO,-21.2,-175.2,77.16,88.00%,75.00%,10.36,broken clouds
57,Pevek,RU,69.7008,170.3133,28.09,85.00%,100.00%,13.53,overcast clouds
58,Albany,US,42.6001,-73.9662,59.09,95.00%,100.00%,4.7,moderate rain
59,Rocha,UY,-34.4833,-54.3333,53.91,68.00%,5.00%,6.35,clear sky
60,Hungund,IN,16.0667,76.05,77.9,74.00%,25.00%,7.45,scattered clouds
61,Hilo,US,19.7297,-155.09,80.33,73.00%,75.00%,6.91,broken clouds
62,Ishigaki,JP,24.3448,124.1572,82.89,67.00%,42.00%,20.83,scattered clouds
63,Georgetown,MY,5.4112,100.3354,78.73,94.00%,40.00%,1.99,moderate rain
64,Puerto Ayora,EC,-0.7393,-90.3518,78.76,83.00%,56.00%,7.0,broken clouds
65,Marquette,US,46.5333,-87.6335,59.83,95.00%,100.00%,5.68,overcast clouds
66,Deep River,CA,46.1001,-77.4995,64.15,60.00%,34.00%,5.08,scattered clouds
67,Kharian,PK,32.8149,73.8636,78.15,65.00%,0.00%,3.15,clear sky
68,Bumba,CD,2.1833,22.4667,71.56,99.00%,100.00%,3.49,heavy intensity rain
69,Berlevag,NO,70.8578,29.0864,53.55,71.00%,75.00%,17.27,broken clouds
70,Sfantu Gheorghe,RO,45.8667,25.7833,48.92,83.00%,95.00%,3.8,overcast clouds
71,Matara,LK,5.9485,80.5353,77.63,88.00%,97.00%,6.13,light rain
72,Vestmannaeyjar,IS,63.4427,-20.2734,42.01,67.00%,100.00%,12.75,overcast clouds
73,Sola,VU,-13.8833,167.55,79.95,78.00%,84.00%,6.76,broken clouds
74,Talnakh,RU,69.4865,88.3972,28.49,97.00%,100.00%,10.51,snow
75,Naze,JP,28.3667,129.4833,76.86,79.00%,32.00%,18.95,scattered clouds
76,Port Alfred,ZA,-33.5906,26.891,56.75,76.00%,25.00%,6.8,scattered clouds
77,Fairbanks,US,64.8378,-147.7164,32.59,92.00%,90.00%,0.0,light snow
78,Airai,TL,-8.9266,125.4092,59.16,75.00%,1.00%,0.69,clear sky
79,Marsaxlokk,MT,35.8419,14.5431,76.08,78.00%,0.00%,8.05,clear sky
80,Tornio,FI,65.8481,24.1466,50.02,95.00%,100.00%,19.89,overcast clouds
81,Khorixas,NA,-20.3667,14.9667,62.28,37.00%,0.00%,3.85,clear sky
82,Yamada,JP,39.4667,141.95,66.97,72.00%,100.00%,5.37,overcast clouds
83,Tura,IN,25.5198,90.2201,71.8,96.00%,88.00%,4.07,overcast clouds
84,Abay,KZ,49.6311,72.8539,28.78,93.00%,24.00%,9.4,few clouds
85,Lavrentiya,RU,65.5833,-171.0,35.02,98.00%,100.00%,24.32,light rain
86,Quatre Cocos,MU,-20.2078,57.7625,69.1,81.00%,1.00%,6.58,clear sky
87,Atuona,PF,-9.8,-139.0333,78.13,73.00%,8.00%,17.52,clear sky
88,Sciacca,IT,37.5082,13.0881,75.09,78.00%,6.00%,10.89,clear sky
89,Bambous Virieux,MU,-20.3428,57.7575,69.22,94.00%,75.00%,14.97,light intensity shower rain
90,Kodiak,US,57.79,-152.4072,44.11,57.00%,1.00%,3.44,clear sky
91,Mayumba,GA,-3.432,10.6554,76.26,87.00%,100.00%,8.63,overcast clouds
92,Whitehorse,CA,60.7161,-135.0538,35.1,87.00%,90.00%,2.3,light snow
93,Coos Bay,US,43.3665,-124.2179,67.98,88.00%,1.00%,6.91,clear sky
94,Boyarka,UA,50.3191,30.2973,49.14,51.00%,0.00%,8.95,clear sky
95,Bredasdorp,ZA,-34.5322,20.0403,54.28,86.00%,0.00%,11.16,clear sky
96,Lata,PT,40.1629,-8.3327,61.07,88.00%,1.00%,0.43,clear sky
97,Sitka,US,57.0531,-135.33,46.29,66.00%,20.00%,5.75,few clouds
98,Baker City,US,44.7749,-117.8344,75.94,20.00%,1.00%,14.97,clear sky
99,Haines Junction,CA,60.7522,-137.5108,42.75,52.00%,64.00%,4.61,broken clouds
100,Iralaya,HN,15.0,-83.2333,86.09,75.00%,94.00%,8.55,overcast clouds
101,Maragogi,BR,-9.0122,-35.2225,75.97,78.00%,2.00%,7.83,clear sky
102,Prabumulih,ID,-3.45,104.25,73.4,96.00%,100.00%,2.64,light rain
103,Caruray,PH,10.3094,119.0128,76.24,92.00%,100.00%,5.55,heavy intensity rain
104,Merauke,ID,-8.4667,140.3333,76.19,89.00%,27.00%,8.03,scattered clouds
105,Mojoagung,ID,-7.5667,112.35,74.79,87.00%,17.00%,5.55,few clouds
106,Puerto Ayacucho,VE,5.6639,-67.6236,88.41,68.00%,75.00%,1.39,light rain
107,Amot,NO,59.5714,7.9877,49.5,96.00%,92.00%,4.36,light rain
108,Mount Isa,AU,-20.7333,139.5,71.37,16.00%,4.00%,17.27,clear sky
109,Beyneu,KZ,45.3167,55.2,54.1,53.00%,100.00%,18.25,overcast clouds
110,Stavyshche,UA,50.4,29.5333,48.13,59.00%,7.00%,7.45,clear sky
111,San Policarpo,PH,12.1791,125.5072,79.27,89.00%,100.00%,13.85,moderate rain
112,Ginda,IN,30.6945,78.4932,57.79,86.00%,0.00%,5.01,clear sky
113,Inhambane,MZ,-23.865,35.3833,71.73,89.00%,100.00%,12.06,light rain
114,Busselton,AU,-33.65,115.3333,46.09,77.00%,100.00%,9.37,overcast clouds
115,Necochea,AR,-38.5473,-58.7368,59.04,66.00%,4.00%,6.02,clear sky
116,Provideniya,RU,64.3833,-173.3,39.31,75.00%,90.00%,17.9,light rain
117,Kaitangata,NZ,-46.2817,169.8464,53.62,79.00%,96.00%,11.1,overcast clouds
118,Saldanha,ZA,-33.0117,17.9442,55.45,58.00%,19.00%,13.33,few clouds
119,Norman Wells,CA,65.282,-126.8329,32.04,93.00%,90.00%,17.27,light snow
120,Tuy Hoa,VN,13.0833,109.3,76.05,92.00%,97.00%,4.5,overcast clouds
121,Bethel,US,41.3712,-73.414,65.68,92.00%,90.00%,3.0,mist
122,Avarua,CK,-21.2078,-159.775,77.05,73.00%,20.00%,11.5,few clouds
123,Ishinomaki,JP,38.4167,141.3,64.54,76.00%,100.00%,4.21,overcast clouds
124,Sur,OM,22.5667,59.5289,82.9,72.00%,6.00%,10.45,clear sky
125,Khatanga,RU,71.9667,102.5,28.81,96.00%,100.00%,17.87,light snow
126,Kruisfontein,ZA,-34.0033,24.7314,50.88,91.00%,2.00%,3.71,clear sky
127,Kavieng,PG,-2.5744,150.7967,81.54,72.00%,100.00%,1.63,overcast clouds
128,Khandyga,RU,62.6667,135.6,24.84,91.00%,31.00%,3.49,scattered clouds
129,Qaanaaq,GL,77.484,-69.3632,26.04,73.00%,100.00%,5.97,overcast clouds
130,Sao Filipe,CV,14.8961,-24.4956,80.55,81.00%,22.00%,5.37,few clouds
131,San Patricio,US,28.017,-97.5169,91.49,40.00%,93.00%,10.74,overcast clouds
132,Maroua,CM,10.591,14.3159,77.95,75.00%,75.00%,5.44,light rain
133,Gayeri,BF,12.6497,0.4931,85.62,46.00%,55.00%,5.35,broken clouds
134,Juneau,US,58.3019,-134.4197,44.65,87.00%,75.00%,6.91,broken clouds
135,Great Yarmouth,GB,52.6083,1.7305,58.01,80.00%,99.00%,14.16,overcast clouds
136,College,US,64.8569,-147.8028,32.58,93.00%,90.00%,4.61,light snow
137,Byron Bay,AU,-28.65,153.6167,64.06,38.00%,0.00%,4.56,clear sky
138,Ponta Do Sol,PT,32.6667,-17.1,70.72,66.00%,41.00%,4.7,scattered clouds
139,Svetlogorsk,BY,52.6333,29.7333,43.72,87.00%,0.00%,7.83,clear sky
140,Victoria,HK,22.2855,114.1577,85.32,80.00%,30.00%,1.01,scattered clouds
141,Macau,MO,22.2006,113.5461,85.06,79.00%,20.00%,9.22,light rain
142,Dedza,MW,-14.3779,34.3332,65.48,59.00%,33.00%,5.82,scattered clouds
143,Arraial Do Cabo,BR,-22.9661,-42.0278,75.16,83.00%,75.00%,11.5,broken clouds
144,Hobart,AU,-42.8794,147.3294,48.11,88.00%,75.00%,3.44,light rain
145,Valparaiso,CL,-33.0393,-71.6273,71.83,49.00%,0.00%,9.22,clear sky
146,Pangnirtung,CA,66.1451,-65.7125,37.4,81.00%,75.00%,0.0,broken clouds
147,Avera,US,33.194,-82.5271,83.08,75.00%,100.00%,5.84,overcast clouds
148,Butaritari,KI,3.0707,172.7902,82.0,68.00%,96.00%,10.18,overcast clouds
149,At-Bashi,KG,41.1702,75.8106,36.21,57.00%,0.00%,2.15,clear sky
150,Port Blair,IN,11.6667,92.75,80.28,82.00%,71.00%,9.57,broken clouds
151,Banjar,ID,-8.19,114.9675,76.91,90.00%,44.00%,6.15,scattered clouds
152,Mimongo,GA,-1.6195,11.6068,71.44,98.00%,86.00%,1.28,overcast clouds
153,Grand Gaube,MU,-20.0064,57.6608,69.39,82.00%,0.00%,5.01,clear sky
154,Faanui,PF,-16.4833,-151.75,78.4,71.00%,11.00%,16.02,few clouds
155,Hobyo,SO,5.3505,48.5268,78.24,87.00%,94.00%,20.24,overcast clouds
156,Chokurdakh,RU,70.6333,147.9167,19.76,95.00%,99.00%,11.03,overcast clouds
157,Hambantota,LK,6.1241,81.1185,79.14,100.00%,20.00%,6.91,few clouds
158,Preston,GB,53.7667,-2.7167,53.58,3.00%,99.00%,1.99,light rain
159,Anadyr,RU,64.75,177.4833,37.9,86.00%,90.00%,20.0,light rain
160,Tasiilaq,GL,65.6145,-37.6368,33.96,63.00%,62.00%,4.68,broken clouds
161,Camacha,PT,33.0833,-16.3333,67.42,56.00%,75.00%,9.22,broken clouds
162,Kupang,ID,-10.1667,123.5833,76.03,79.00%,16.00%,4.72,few clouds
163,Dikson,RU,73.5069,80.5464,34.11,98.00%,100.00%,3.53,overcast clouds
164,San Cristobal,VE,7.7669,-72.225,82.58,57.00%,99.00%,4.97,overcast clouds
165,San Quintin,MX,30.4833,-115.95,78.73,50.00%,10.00%,11.18,clear sky
166,Gribanovskiy,RU,51.4579,41.9764,48.61,72.00%,100.00%,8.43,overcast clouds
167,Saskylakh,RU,71.9167,114.0833,28.36,91.00%,100.00%,17.36,overcast clouds
168,Skelleftea,SE,64.7507,20.9528,52.16,68.00%,90.00%,1.99,light rain
169,Ostrovnoy,RU,68.0531,39.5131,45.9,80.00%,80.00%,32.55,broken clouds
170,Mogadishu,SO,2.0371,45.3438,78.01,87.00%,82.00%,14.61,broken clouds
171,Lompoc,US,34.6391,-120.4579,88.57,54.00%,1.00%,9.22,clear sky
172,Santiago,CL,-33.4569,-70.6483,79.18,23.00%,0.00%,8.05,clear sky
173,East London,ZA,-33.0153,27.9116,56.89,81.00%,83.00%,4.16,broken clouds
174,Wyndham,US,37.6985,-77.6125,83.62,75.00%,40.00%,8.05,scattered clouds
175,Black Forest,US,39.0131,-104.7008,76.69,18.00%,1.00%,5.01,clear sky
176,Lima,PE,-12.0432,-77.0282,71.91,70.00%,90.00%,5.75,overcast clouds
177,Hami,CN,42.8,93.45,55.33,19.00%,100.00%,6.24,overcast clouds
178,Belmonte,BR,-15.8631,-38.8828,79.3,81.00%,24.00%,11.25,few clouds
179,New Norfolk,AU,-42.7826,147.0587,47.75,73.00%,99.00%,2.55,overcast clouds
180,Rafai,CF,4.95,23.9167,69.37,97.00%,39.00%,1.5,scattered clouds
181,Karratha,AU,-20.7377,116.8463,68.32,51.00%,0.00%,9.35,light rain
182,Helsingborg,SE,56.0467,12.6944,55.94,94.00%,100.00%,8.95,overcast clouds
183,Maniitsoq,GL,65.4167,-52.9,37.49,57.00%,22.00%,5.95,few clouds
184,Villaviciosa,ES,43.4813,-5.4357,67.62,76.00%,89.00%,4.43,overcast clouds
185,Greeneville,US,36.1632,-82.831,79.92,66.00%,75.00%,4.61,broken clouds
186,Ossora,RU,59.2353,163.0719,38.05,72.00%,100.00%,19.35,overcast clouds
187,Poum,NC,-20.2333,164.0167,75.54,77.00%,0.00%,9.17,clear sky
188,Igarka,RU,67.4667,86.5833,29.52,92.00%,100.00%,12.59,overcast clouds
189,Rio Gallegos,AR,-51.6226,-69.2181,48.25,40.00%,75.00%,29.93,broken clouds
190,Upernavik,GL,72.7868,-56.1549,29.59,67.00%,91.00%,5.19,overcast clouds
191,Inuvik,CA,68.3499,-133.7218,32.76,83.00%,75.00%,5.75,broken clouds
192,Westerly,US,41.3776,-71.8273,63.9,93.00%,90.00%,12.66,overcast clouds
193,Port Macquarie,AU,-31.4333,152.9167,58.89,48.00%,0.00%,4.38,clear sky
194,Santa Quiteria,BR,-4.3319,-40.1567,90.77,28.00%,77.00%,5.79,broken clouds
195,Aksarka,RU,66.5606,67.7975,35.31,93.00%,100.00%,13.47,overcast clouds
196,North Platte,US,41.1239,-100.7654,82.99,25.00%,1.00%,3.0,clear sky
197,Waitati,NZ,-45.75,170.5667,55.8,93.00%,100.00%,12.03,overcast clouds
198,Adolfo Lopez Mateos,MX,28.4667,-107.3,67.93,53.00%,84.00%,14.38,broken clouds
199,Novobirilyussy,RU,56.9514,90.6661,27.63,94.00%,50.00%,5.14,scattered clouds
200,Gympie,AU,-26.1898,152.665,67.32,28.00%,0.00%,3.67,clear sky
201,Sulphur Springs,US,33.1385,-95.6011,88.21,21.00%,1.00%,9.22,clear sky
202,Tuatapere,NZ,-46.1333,167.6833,52.83,77.00%,81.00%,3.18,broken clouds
203,Shache,CN,38.4167,77.2406,52.77,46.00%,0.00%,4.43,clear sky
204,Constantine,DZ,36.365,6.6147,67.41,72.00%,75.00%,3.44,broken clouds
205,Nuuk,GL,64.1835,-51.7216,36.21,87.00%,75.00%,12.66,broken clouds
206,Walvis Bay,NA,-22.9575,14.5053,56.08,87.00%,0.00%,4.61,clear sky
207,Praia,CV,14.9215,-23.5087,81.14,83.00%,20.00%,12.66,few clouds
208,Portland,US,45.5234,-122.6762,71.94,68.00%,40.00%,1.01,scattered clouds
209,Krasnaya Zarya,RU,52.7825,37.6806,45.41,65.00%,100.00%,5.84,overcast clouds
210,Pitimbu,BR,-7.4706,-34.8086,81.19,75.00%,7.00%,11.59,clear sky
211,Tokat,TR,40.4167,36.5833,39.29,93.00%,39.00%,3.53,scattered clouds
212,Anzio,IT,41.4853,12.6179,74.3,80.00%,42.00%,18.39,scattered clouds
213,Koumac,NC,-20.5667,164.2833,77.95,67.00%,0.00%,1.66,clear sky
214,Hithadhoo,MV,-0.6,73.0833,83.52,75.00%,10.00%,19.91,clear sky
215,Yulin,CN,22.6333,110.15,75.92,77.00%,2.00%,2.86,light rain
216,Catamarca,AR,-28.4696,-65.7852,76.77,28.00%,0.00%,8.01,clear sky
217,Tautira,PF,-17.7333,-149.15,82.42,75.00%,12.00%,16.69,light rain
218,Babaeski,TR,41.4325,27.0931,55.13,75.00%,2.00%,6.29,clear sky
219,Annau,TM,37.8876,58.516,58.5,26.00%,1.00%,6.91,clear sky
220,Jhansi,IN,25.4333,78.5833,83.43,69.00%,93.00%,4.03,overcast clouds
221,Englewood,US,39.6478,-104.9878,83.77,18.00%,20.00%,3.0,few clouds
222,Beatrice,US,40.2681,-96.747,86.18,24.00%,1.00%,9.22,clear sky
223,Castro,BR,-24.7911,-50.0119,62.8,97.00%,99.00%,6.93,light rain
224,Margate,GB,51.3813,1.3862,58.91,85.00%,89.00%,15.05,overcast clouds
225,Pisco,PE,-13.7,-76.2167,69.03,68.00%,0.00%,10.36,clear sky
226,Hovd,MN,48.0056,91.6419,34.32,38.00%,7.00%,5.32,clear sky
227,Tomiya,JP,38.3931,140.8861,63.84,71.00%,95.00%,3.87,overcast clouds
228,Dongsheng,CN,39.8161,109.9776,43.81,59.00%,100.00%,12.17,overcast clouds
229,Nanortalik,GL,60.1432,-45.2371,37.17,86.00%,14.00%,6.69,few clouds
230,Barnaul,RU,53.3606,83.7636,39.92,93.00%,75.00%,6.71,light intensity shower rain
231,Lososina,RU,48.9975,140.3106,38.43,67.00%,0.00%,6.04,clear sky
232,Labuhan,ID,-6.8844,112.2051,76.69,79.00%,86.00%,12.21,overcast clouds
233,Ceres,US,37.5949,-120.9577,95.49,28.00%,1.00%,0.0,haze
234,Khorramshahr,IR,30.4397,48.1664,82.36,30.00%,0.00%,4.61,clear sky
235,Marovoay,MG,-16.1,46.6333,78.94,67.00%,97.00%,3.94,light rain
236,Skibbereen,IE,51.55,-9.2667,51.6,84.00%,9.00%,14.76,clear sky
237,Hamilton,US,39.1834,-84.5333,77.02,88.00%,20.00%,9.22,light rain
238,Coihaique,CL,-45.5752,-72.0662,52.41,54.00%,75.00%,9.22,light rain
239,Mersing,MY,2.4312,103.8405,75.11,94.00%,100.00%,5.75,overcast clouds
240,Half Moon Bay,US,37.4636,-122.4286,97.25,51.00%,1.00%,0.0,clear sky
241,Longyearbyen,SJ,78.2186,15.6401,39.04,75.00%,75.00%,13.8,light intensity drizzle
242,Nouadhibou,MR,20.931,-17.0347,76.98,61.00%,0.00%,16.11,clear sky
243,Greensboro,US,36.0726,-79.792,80.55,79.00%,75.00%,1.99,broken clouds
244,Stornoway,GB,58.2093,-6.3865,50.94,93.00%,30.00%,1.14,scattered clouds
245,Rottenburg,DE,48.4763,8.9353,55.78,92.00%,100.00%,2.01,overcast clouds
246,Bandarbeyla,SO,9.4942,50.8122,78.66,83.00%,38.00%,20.04,scattered clouds
247,Sorong,ID,-0.8833,131.25,79.05,78.00%,98.00%,11.68,overcast clouds
248,Wilmington,US,34.2257,-77.9447,83.91,69.00%,1.00%,9.22,clear sky
249,Ilulissat,GL,69.2167,-51.1,18.0,78.00%,6.00%,6.87,clear sky
250,Lac Du Bonnet,CA,50.2536,-96.0612,78.58,23.00%,80.00%,3.13,broken clouds
251,Husavik,IS,66.0449,-17.3389,39.11,99.00%,100.00%,15.26,overcast clouds
252,Priupskiy,RU,53.9096,37.736,43.84,79.00%,100.00%,6.17,overcast clouds
253,Shenjiamen,CN,29.9576,122.298,75.9,72.00%,0.00%,10.56,clear sky
254,Scarborough,GB,54.2797,-0.4044,52.52,89.00%,99.00%,1.99,overcast clouds
255,Saint George,US,37.1041,-113.5841,90.07,22.00%,1.00%,1.99,clear sky
256,Taunggyi,MM,20.7833,97.0333,60.94,95.00%,18.00%,1.59,few clouds
257,Te Anau,NZ,-45.4167,167.7167,49.98,89.00%,97.00%,1.03,overcast clouds
258,Sabha,LY,27.0377,14.4283,80.04,27.00%,0.00%,7.83,clear sky
259,Mahon,ES,39.8885,4.2658,59.56,82.00%,20.00%,3.44,few clouds
260,Katsuura,JP,35.1333,140.3,75.18,75.00%,2.00%,11.14,clear sky
261,Pochutla,MX,15.7432,-96.4661,91.22,66.00%,42.00%,6.02,scattered clouds
262,Watertown,US,42.3709,-71.1828,59.65,94.00%,90.00%,4.0,light rain
263,Anshun,CN,26.25,105.9333,60.22,97.00%,3.00%,4.36,clear sky
264,Erdenet,MN,49.0333,104.0833,30.04,81.00%,80.00%,2.64,broken clouds
265,Saint Anthony,US,45.0205,-93.218,74.86,58.00%,1.00%,4.0,clear sky
266,Morondava,MG,-20.2833,44.2833,77.18,79.00%,39.00%,12.68,scattered clouds
267,Bindi,SL,9.9167,-11.45,75.78,88.00%,99.00%,1.97,overcast clouds
268,Hasaki,JP,35.7333,140.8333,66.6,75.00%,4.00%,12.53,clear sky
269,Guantanamo,CU,20.1444,-75.2092,83.77,63.00%,100.00%,6.73,overcast clouds
270,Saint-Francois,FR,46.4154,3.9054,53.47,95.00%,0.00%,4.61,clear sky
271,Teabo,MX,20.4,-89.2833,94.78,36.00%,72.00%,4.0,broken clouds
272,Pierre,US,44.3683,-100.351,87.28,23.00%,1.00%,1.99,clear sky
273,Grindavik,IS,63.8424,-22.4338,39.67,81.00%,40.00%,19.57,scattered clouds
274,Vardo,NO,70.3705,31.1107,53.8,83.00%,100.00%,24.25,overcast clouds
275,Salalah,OM,17.0151,54.0924,80.69,89.00%,75.00%,8.05,broken clouds
276,Cap Malheureux,MU,-19.9842,57.6142,69.48,82.00%,0.00%,3.0,clear sky
277,Erenhot,CN,43.6475,111.9767,45.32,48.00%,98.00%,5.57,overcast clouds
278,Gouyave,GD,12.1646,-61.7296,86.77,70.00%,20.00%,23.02,few clouds
279,Winslow,US,35.0242,-110.6974,81.97,28.00%,1.00%,1.01,clear sky
280,Cherskiy,RU,68.75,161.3,13.8,99.00%,95.00%,6.89,overcast clouds
281,Mangrol,IN,21.1167,70.1167,80.78,83.00%,30.00%,7.29,scattered clouds
282,Wuwei,CN,37.9281,102.6414,51.8,54.00%,100.00%,5.73,overcast clouds
283,Mar Del Plata,AR,-38.0023,-57.5575,63.0,63.00%,40.00%,8.01,scattered clouds
284,Azare,NG,11.6765,10.1948,86.32,32.00%,99.00%,6.44,overcast clouds
285,Cabo San Lucas,MX,22.8909,-109.9124,94.6,69.00%,20.00%,3.0,few clouds
286,Saint-Pierre,RE,-21.3393,55.4781,71.28,79.00%,90.00%,3.44,light rain
287,Touros,BR,-5.1989,-35.4608,81.5,73.00%,7.00%,16.22,clear sky
288,Baruun-Urt,MN,46.6806,113.2792,32.22,67.00%,4.00%,1.07,clear sky
289,Hervey Bay,AU,-25.2986,152.8535,72.03,46.00%,11.00%,8.55,few clouds
290,Aklavik,CA,68.2191,-135.0107,32.72,83.00%,87.00%,1.45,overcast clouds
291,Ust-Koksa,RU,50.2696,85.6108,31.55,87.00%,97.00%,3.0,overcast clouds
292,Korla,CN,41.7597,86.1469,49.48,62.00%,9.00%,6.42,clear sky
293,Chuy,UY,-33.6971,-53.4616,54.52,65.00%,10.00%,8.16,clear sky
294,Muhos,FI,64.808,25.9931,51.58,90.00%,100.00%,12.77,light rain
295,Ocampo,MX,21.65,-101.5,72.28,65.00%,97.00%,10.0,overcast clouds
296,Antofagasta,CL,-23.65,-70.4,60.08,75.00%,43.00%,5.79,scattered clouds
297,Isangel,VU,-19.55,169.2667,78.67,83.00%,7.00%,5.46,clear sky
298,Kendari,ID,-3.945,122.4989,73.08,91.00%,99.00%,4.0,overcast clouds
299,Bolobo,CD,-2.1667,16.2333,73.44,84.00%,49.00%,1.68,scattered clouds
300,Ternate,ID,0.8,127.4,81.21,76.00%,99.00%,9.53,overcast clouds
301,Makakilo City,US,21.3469,-158.0858,82.72,56.00%,20.00%,9.22,few clouds
302,Nsoko,SZ,-27.0333,31.95,65.46,80.00%,100.00%,3.11,overcast clouds
303,Luganville,VU,-15.5333,167.1667,81.09,79.00%,47.00%,2.42,scattered clouds
304,Gondanglegi,ID,-7.7479,112.0132,73.35,87.00%,24.00%,11.99,few clouds
305,Pulandian,CN,39.3953,121.9669,53.73,85.00%,100.00%,13.53,overcast clouds
306,Henties Bay,NA,-22.116,14.2845,55.85,91.00%,0.00%,1.63,clear sky
307,Hofn,IS,64.2539,-15.2082,43.79,63.00%,64.00%,19.33,broken clouds
308,Narsaq,GL,60.9167,-46.05,39.42,56.00%,6.00%,3.04,clear sky
309,Laguna,US,38.421,-121.4238,96.87,21.00%,1.00%,4.61,clear sky
310,Christchurch,NZ,-43.5333,172.6333,54.03,90.00%,90.00%,4.0,overcast clouds
311,Volot,RU,57.9278,30.7025,45.75,86.00%,0.00%,8.93,clear sky
312,Port Hardy,CA,50.6996,-127.4199,48.38,87.00%,90.00%,8.05,overcast clouds
313,Kurilsk,RU,45.2333,147.8833,48.96,66.00%,19.00%,11.61,few clouds
314,Caceres,ES,39.522,-6.3748,60.8,60.00%,2.00%,5.37,clear sky
315,Vangaindrano,MG,-23.35,47.6,70.45,85.00%,76.00%,4.14,broken clouds
316,Jacareacanga,BR,-6.2222,-57.7528,87.04,53.00%,95.00%,3.24,overcast clouds
317,Rumoi,JP,43.9344,141.6428,52.2,83.00%,100.00%,4.56,overcast clouds
318,Bilma,NE,18.6853,12.9164,87.33,17.00%,0.00%,8.97,clear sky
319,Progreso,MX,21.2833,-89.6667,94.1,66.00%,30.00%,14.14,scattered clouds
320,Voyvozh,RU,62.892,54.9635,31.12,88.00%,83.00%,4.56,broken clouds
321,Mirabad,AF,30.4362,61.8383,66.06,25.00%,0.00%,10.09,clear sky
322,Oranjestad,AW,12.524,-70.027,85.95,70.00%,40.00%,23.02,scattered clouds
323,Batetskiy,RU,58.6461,30.3027,45.86,87.00%,0.00%,8.59,clear sky
324,Zhangye,CN,38.9342,100.4517,50.77,46.00%,87.00%,1.12,overcast clouds
325,Taltal,CL,-25.4,-70.4833,61.47,70.00%,24.00%,6.2,few clouds
326,Asau,RO,46.4333,26.4,50.76,75.00%,99.00%,0.72,overcast clouds
327,Pacific Grove,US,36.6177,-121.9166,93.61,53.00%,1.00%,1.99,clear sky
328,Campbell River,CA,50.0163,-125.2446,53.6,70.00%,90.00%,0.0,overcast clouds
329,Luderitz,NA,-26.6481,15.1594,55.6,79.00%,35.00%,2.64,scattered clouds
330,Gloucester,GB,51.8657,-2.2431,57.51,85.00%,100.00%,11.99,moderate rain
331,Tabas,IR,33.5959,56.9244,73.06,17.00%,0.00%,1.54,clear sky
332,Mizdah,LY,31.4451,12.9801,74.12,38.00%,13.00%,10.38,few clouds
333,Lukhovitsy,RU,54.9728,39.0361,43.92,90.00%,100.00%,5.68,light rain
334,Jasper,US,37.2001,-94.3502,81.0,34.00%,1.00%,3.0,clear sky
335,Gorom-Gorom,BF,14.4439,-0.2361,94.53,29.00%,99.00%,9.82,overcast clouds
336,Clyde River,CA,70.4692,-68.5914,35.83,100.00%,90.00%,8.05,overcast clouds
337,Maryville,US,35.7565,-83.9705,81.32,67.00%,75.00%,0.0,broken clouds
338,Hailar,CN,49.2,119.7,33.03,81.00%,0.00%,8.3,clear sky
339,Port Lincoln,AU,-34.7333,135.8667,51.19,77.00%,1.00%,6.04,clear sky
340,Norwich,GB,52.6278,1.2983,57.36,88.00%,20.00%,1.99,few clouds
341,Pisa,IT,43.7155,10.3966,68.34,92.00%,75.00%,13.8,moderate rain
342,Lerik,AZ,38.7726,48.4128,47.84,95.00%,100.00%,5.37,overcast clouds
343,Mocuba,MZ,-16.8392,36.9856,73.47,85.00%,6.00%,3.29,clear sky
344,Flin Flon,CA,54.7682,-101.865,59.16,18.00%,94.00%,5.55,overcast clouds
345,Westport,US,41.1415,-73.3579,69.8,95.00%,90.00%,10.0,mist
346,Geraldton,AU,-28.7667,114.6,48.61,93.00%,40.00%,9.22,scattered clouds
347,Boshnyakovo,RU,49.6333,142.1667,39.45,67.00%,50.00%,9.62,scattered clouds
348,Patacamaya,BO,-17.2333,-67.9167,54.68,52.00%,68.00%,17.83,broken clouds
349,Nouakchott,MR,18.0858,-15.9785,84.13,75.00%,0.00%,9.78,clear sky
350,Challans,FR,46.8436,-1.8749,60.96,86.00%,50.00%,14.58,scattered clouds
351,Serebryansk,KZ,49.6925,83.2892,38.75,95.00%,100.00%,7.11,overcast clouds
352,Nandyal,IN,15.4833,78.4833,75.81,89.00%,61.00%,3.42,broken clouds
353,La Ronge,CA,55.1001,-105.2842,52.05,30.00%,90.00%,6.91,overcast clouds
354,Havre-Saint-Pierre,CA,50.2334,-63.5986,59.36,58.00%,1.00%,6.91,clear sky
355,Botwood,CA,49.1499,-55.3482,45.88,91.00%,100.00%,8.05,overcast clouds
356,Sangar,RU,63.9242,127.4739,27.27,93.00%,27.00%,5.59,scattered clouds
357,Fallon,US,39.4735,-118.7774,85.91,9.00%,75.00%,3.44,smoke
358,Chanika,TZ,-5.4167,38.0167,64.47,87.00%,31.00%,4.76,scattered clouds
359,Tiksi,RU,71.6872,128.8694,25.32,79.00%,100.00%,26.73,overcast clouds
360,Matam,SN,15.6175,-13.3303,96.42,24.00%,49.00%,5.95,scattered clouds
361,Ahipara,NZ,-35.1667,173.1667,62.38,88.00%,45.00%,6.44,scattered clouds
362,Souillac,MU,-20.5167,57.5167,69.37,94.00%,75.00%,14.97,light intensity shower rain
363,Esperance,AU,-33.8667,121.9,48.04,81.00%,55.00%,13.98,broken clouds
364,Itoman,JP,26.1247,127.6694,83.17,74.00%,20.00%,4.61,few clouds
365,Sassandra,CI,4.95,-6.0833,76.8,90.00%,0.00%,4.85,clear sky
366,Pumiao,CN,22.75,108.4833,77.4,88.00%,3.00%,2.46,light rain
367,Nantucket,US,41.2835,-70.0995,61.03,94.00%,100.00%,24.99,overcast clouds
368,Adre,TD,13.4667,22.2,79.2,29.00%,5.00%,9.89,clear sky
369,Tongliao,CN,43.6125,122.2653,47.86,68.00%,100.00%,6.13,overcast clouds
370,Ponta Delgada,PT,37.7333,-25.6667,75.51,83.00%,20.00%,5.75,few clouds
371,Koeru,EE,58.9631,26.0308,50.92,67.00%,100.00%,12.19,overcast clouds
372,Kampot,KH,10.6167,104.1833,77.05,88.00%,100.00%,1.14,overcast clouds
373,Kpandae,GH,8.4689,-0.0113,77.38,84.00%,96.00%,3.85,light rain
374,Americus,US,32.0724,-84.2327,83.35,73.00%,100.00%,3.44,overcast clouds
375,Corum,TR,40.5,34.75,46.36,82.00%,19.00%,4.07,few clouds
376,Tuckahoe,US,37.5901,-77.5564,83.32,75.00%,40.00%,5.01,scattered clouds
377,Bucerias,MX,20.75,-105.3333,89.98,66.00%,40.00%,11.5,scattered clouds
378,Uyuni,BO,-20.4597,-66.825,63.82,5.00%,0.00%,14.32,clear sky
379,Leirvik,NO,59.7798,5.5005,52.63,80.00%,100.00%,16.13,light rain
380,Borba,BR,-4.3878,-59.5939,89.13,52.00%,100.00%,0.85,overcast clouds
381,Sturgeon Bay,US,44.8342,-87.377,66.18,94.00%,90.00%,6.91,overcast clouds
382,Havre,FR,49.5833,0.3333,55.8,90.00%,7.00%,13.44,clear sky
383,Dinghai,CN,26.2847,119.7936,79.72,77.00%,8.00%,21.23,clear sky
384,Nome,US,64.5011,-165.4064,33.87,93.00%,90.00%,18.41,light snow
385,Den Helder,NL,52.9599,4.7593,57.97,84.00%,75.00%,10.0,broken clouds
386,Klaksvik,FO,62.2266,-6.589,45.52,82.00%,100.00%,26.19,overcast clouds
387,Nikolskoye,RU,59.7035,30.7861,45.88,83.00%,2.00%,9.28,clear sky
388,The Valley,AI,18.217,-63.0578,87.66,62.00%,75.00%,16.11,broken clouds
389,Cabedelo,BR,-6.9811,-34.8339,81.27,75.00%,14.00%,14.47,few clouds
390,Atherton,GB,53.5237,-2.4935,53.22,91.00%,100.00%,1.99,moderate rain
391,Along,IN,28.1667,94.7667,68.4,95.00%,79.00%,1.32,broken clouds
392,Mugur-Aksy,RU,50.35,90.5,17.4,72.00%,83.00%,3.94,broken clouds
393,Pingliang,CN,35.5392,106.6861,46.11,94.00%,100.00%,4.85,moderate rain
394,Atasu,KZ,48.6814,71.6433,29.25,83.00%,32.00%,10.27,scattered clouds
395,Nemuro,JP,43.3236,145.575,53.49,77.00%,100.00%,16.53,overcast clouds
396,Ust-Tsilma,RU,65.441,52.1498,40.32,90.00%,69.00%,7.02,broken clouds
397,Constitucion,CL,-35.3333,-72.4167,59.25,59.00%,19.00%,16.33,few clouds
398,Seddon,AU,-37.8068,144.8916,53.98,72.00%,90.00%,7.0,heavy intensity rain
399,Axim,GH,4.8699,-2.2405,77.81,89.00%,17.00%,5.3,few clouds
400,Dinguiraye,GN,11.3,-10.7167,69.1,94.00%,97.00%,8.48,moderate rain
401,Manhattan,US,40.7834,-73.9662,72.18,90.00%,90.00%,5.01,mist
402,Paranaiba,BR,-19.6772,-51.1908,87.1,44.00%,94.00%,1.99,overcast clouds
403,Danville,US,36.586,-79.395,82.62,83.00%,75.00%,4.61,broken clouds
404,Los Llanos De Aridane,ES,28.6585,-17.9182,69.55,81.00%,75.00%,16.11,broken clouds
405,Juba,SS,4.8517,31.5825,73.69,85.00%,62.00%,2.08,broken clouds
406,Cheney,US,47.4874,-117.5758,76.77,53.00%,75.00%,4.61,broken clouds
407,Shar,KZ,49.5886,81.0453,38.39,86.00%,100.00%,6.06,overcast clouds
408,Acapulco,MX,16.8634,-99.8901,85.82,74.00%,40.00%,9.22,scattered clouds
409,Waipawa,NZ,-41.4122,175.5153,53.46,97.00%,100.00%,5.7,moderate rain
410,Male,MV,4.1748,73.5089,82.35,78.00%,75.00%,16.11,broken clouds
411,Vanimo,PG,-2.6741,141.3028,77.41,90.00%,100.00%,4.23,overcast clouds
412,Aldan,RU,58.6031,125.3894,25.0,95.00%,100.00%,2.71,overcast clouds
413,Derzhavinsk,KZ,51.1,66.3167,29.43,81.00%,12.00%,13.65,few clouds
414,Cidreira,BR,-30.1811,-50.2056,60.04,63.00%,24.00%,9.93,few clouds
415,Grants Pass,US,42.439,-123.3284,77.68,38.00%,1.00%,0.0,clear sky
416,Kytmanovo,RU,53.4593,85.4479,37.98,83.00%,100.00%,6.71,light rain
417,Shakhtinsk,KZ,49.71,72.5872,28.96,91.00%,18.00%,9.64,few clouds
418,Saint-Augustin,CA,51.226,-58.6502,47.08,63.00%,76.00%,11.1,broken clouds
419,Severo-Kurilsk,RU,50.6789,156.125,45.39,81.00%,17.00%,13.56,few clouds
420,Calarasi,MD,47.2544,28.3081,54.55,47.00%,99.00%,4.74,overcast clouds
421,Mumbwa,ZM,-14.9783,27.0619,69.55,65.00%,62.00%,4.43,broken clouds
422,Najran,SA,17.4924,44.1277,79.45,25.00%,93.00%,3.29,overcast clouds
423,Dingle,PH,10.9995,122.6711,75.06,96.00%,99.00%,5.17,overcast clouds
424,La Asuncion,VE,11.0333,-63.8628,85.73,70.00%,52.00%,16.11,broken clouds
425,Nyimba,ZM,-14.5566,30.8149,80.17,47.00%,62.00%,11.97,broken clouds
426,Bay Roberts,CA,47.5999,-53.2648,49.33,82.00%,79.00%,5.01,broken clouds
427,Jos,NG,9.9167,8.9,68.76,72.00%,24.00%,2.51,light rain
428,Adrar,MR,20.5022,-10.0711,89.69,9.00%,3.00%,12.8,clear sky
429,Suntar,RU,62.1444,117.6319,28.92,92.00%,95.00%,4.94,overcast clouds
430,Xapuri,BR,-10.6517,-68.5044,93.85,60.00%,97.00%,3.04,moderate rain
431,Kiama,AU,-34.6833,150.8667,61.0,62.00%,31.00%,11.99,scattered clouds
432,Deputatskiy,RU,69.3,139.9,17.65,82.00%,100.00%,10.13,overcast clouds
433,Carroll,US,39.5501,-77.0164,80.89,61.00%,61.00%,1.99,broken clouds
434,Kasane,BW,-17.8167,25.15,74.01,47.00%,77.00%,4.54,broken clouds
435,Doka,SD,13.5167,35.7667,77.18,77.00%,100.00%,5.84,overcast clouds
436,Besikduzu,TR,41.052,39.2284,62.49,86.00%,84.00%,8.16,broken clouds
437,Moose Factory,CA,51.2585,-80.6094,68.0,48.00%,1.00%,6.91,clear sky
438,Mvomero,TZ,-6.25,38.6667,76.75,85.00%,26.00%,1.79,scattered clouds
439,Dhaka,BD,23.7104,90.4074,84.18,74.00%,75.00%,8.05,haze
440,Lyubytino,RU,58.8122,33.3922,43.0,91.00%,2.00%,7.96,clear sky
441,Itarema,BR,-2.9248,-39.9167,79.7,74.00%,85.00%,16.17,overcast clouds
442,Concordia,AR,-31.393,-58.0209,68.07,49.00%,20.00%,4.0,few clouds
443,Terra Santa,BR,-2.1042,-56.4869,92.43,40.00%,99.00%,4.92,overcast clouds
444,Bathsheba,BB,13.2167,-59.5167,86.61,66.00%,40.00%,23.02,scattered clouds
445,Frontera,MX,26.9333,-101.45,80.94,71.00%,97.00%,8.3,overcast clouds
446,Kondinskoye,RU,59.6481,67.41,29.64,76.00%,92.00%,4.47,overcast clouds
447,Iquique,CL,-20.2208,-70.1431,62.64,73.00%,14.00%,2.86,few clouds
448,Rafaela,AR,-31.2503,-61.4867,79.0,10.00%,0.00%,5.73,clear sky
449,Conway,US,35.0887,-92.4421,85.08,56.00%,1.00%,5.75,clear sky
450,Zlotoryja,PL,51.1264,15.9198,64.38,87.00%,100.00%,2.39,overcast clouds
451,Jieshi,CN,22.8134,115.8257,79.5,81.00%,18.00%,11.56,few clouds
452,Reporoa,NZ,-38.4333,176.35,57.42,85.00%,78.00%,1.88,broken clouds
453,Mishan,CN,45.55,131.8833,39.79,83.00%,100.00%,3.06,overcast clouds
454,Sorland,NO,67.667,12.6934,55.47,71.00%,17.00%,33.04,few clouds
455,Ialibu,PG,-6.2821,143.9935,56.23,96.00%,100.00%,1.74,overcast clouds
456,Presidencia Roque Saenz Pena,AR,-26.7852,-60.4388,73.38,27.00%,0.00%,6.78,clear sky
457,La Rioja,ES,42.25,-2.5,51.04,63.00%,9.00%,7.94,clear sky
458,Charters Towers,AU,-20.1,146.2667,73.53,76.00%,41.00%,0.22,scattered clouds
459,Uruacu,BR,-14.5247,-49.1408,87.49,41.00%,89.00%,3.62,overcast clouds
460,Ixtapa,MX,20.7,-105.2,89.22,66.00%,40.00%,11.5,scattered clouds
461,Urucara,BR,-2.5364,-57.76,85.75,58.00%,100.00%,2.48,moderate rain
462,Bontang,ID,0.1333,117.5,75.13,88.00%,100.00%,6.96,overcast clouds
463,Sao Joao Dos Patos,BR,-6.495,-43.7022,87.98,25.00%,91.00%,0.67,overcast clouds
464,Havoysund,NO,70.9963,24.6622,54.48,82.00%,88.00%,16.75,overcast clouds
465,Lardos,GR,36.0942,28.0157,73.94,59.00%,0.00%,9.26,clear sky
466,Evensk,RU,61.95,159.2333,30.47,51.00%,100.00%,14.7,overcast clouds
467,Panguna,PG,-6.3164,155.4848,71.96,91.00%,100.00%,1.88,overcast clouds
468,Shelburne,CA,44.0787,-80.2041,59.23,100.00%,100.00%,5.28,overcast clouds
469,Luklukan,PH,14.3254,122.7124,78.35,91.00%,100.00%,9.04,heavy intensity rain
470,Fortuna,US,40.5982,-124.1573,83.43,77.00%,20.00%,13.8,few clouds
471,Yerofey Pavlovich,RU,53.9667,121.9667,32.27,71.00%,100.00%,2.71,overcast clouds
472,Vila Velha,BR,-20.3297,-40.2925,80.94,78.00%,40.00%,23.02,scattered clouds
473,Motygino,RU,58.1831,94.7592,27.14,86.00%,38.00%,4.03,scattered clouds
474,Flinders,AU,-34.5833,150.8552,60.8,64.00%,18.00%,4.0,few clouds
475,Okato,NZ,-39.2,173.8833,55.42,93.00%,64.00%,6.87,broken clouds
476,Morada Nova,BR,-5.1067,-38.3725,84.52,53.00%,66.00%,12.88,broken clouds
477,Dong Hoi,VN,17.4833,106.6,77.23,89.00%,31.00%,5.26,scattered clouds
478,Miracema Do Tocantins,BR,-9.5618,-48.3967,90.64,38.00%,98.00%,2.08,overcast clouds
479,Mehamn,NO,71.0357,27.8492,53.51,80.00%,99.00%,22.37,overcast clouds
480,Puerto Del Rosario,ES,28.5004,-13.8627,71.35,64.00%,40.00%,17.27,scattered clouds
481,Namatanai,PG,-3.6667,152.4333,79.56,81.00%,100.00%,3.24,light rain
482,Sibolga,ID,1.7427,98.7792,75.15,84.00%,72.00%,3.51,broken clouds
483,Ambilobe,MG,-13.2,49.05,71.17,80.00%,61.00%,3.71,broken clouds
484,Viedma,AR,-40.8135,-62.9967,61.63,29.00%,3.00%,10.18,clear sky
485,Beringovskiy,RU,63.05,179.3167,38.97,100.00%,100.00%,10.31,moderate rain
486,Nara,JP,34.6851,135.8049,70.88,78.00%,3.00%,1.68,clear sky
487,Ravar,IR,31.2656,56.8055,70.54,21.00%,0.00%,2.73,clear sky
488,Chochola,MX,20.75,-89.8333,93.99,37.00%,60.00%,4.16,broken clouds
489,Okhotsk,RU,59.3833,143.3,29.34,68.00%,0.00%,19.35,clear sky
490,Lazarev,RU,52.225,141.5131,38.77,69.00%,7.00%,14.97,clear sky
491,Debre Zeyit,ET,8.75,38.9833,59.23,92.00%,100.00%,1.7,moderate rain
492,Snezhnogorsk,RU,69.1933,33.2531,53.38,71.00%,100.00%,24.14,overcast clouds
493,Coquimbo,CL,-29.9533,-71.3436,60.53,72.00%,0.00%,16.11,clear sky
494,Zyryanka,RU,65.75,150.85,21.87,85.00%,63.00%,10.87,broken clouds
495,Shimoda,JP,34.6667,138.95,68.11,78.00%,23.00%,8.46,few clouds
496,Kaeo,NZ,-35.1,173.7833,63.32,96.00%,72.00%,4.9,broken clouds
497,Severnoye,RU,56.3491,78.3619,33.1,95.00%,100.00%,12.15,overcast clouds
498,Khromtau,KZ,50.2503,58.4347,31.23,61.00%,6.00%,12.19,clear sky
499,Batsfjord,NO,70.6345,29.7185,53.82,82.00%,75.00%,17.27,broken clouds
500,Neuquen,AR,-38.9516,-68.0591,69.69,18.00%,0.00%,10.36,clear sky
501,Codrington,AU,-38.2667,141.9667,51.37,69.00%,90.00%,25.01,overcast clouds
502,Piacabucu,BR,-10.4056,-36.4344,75.76,77.00%,0.00%,7.38,clear sky
503,Phalodi,IN,27.1333,72.3667,85.3,60.00%,22.00%,13.73,few clouds
504,Loudi,CN,27.7344,111.9944,78.69,66.00%,23.00%,2.68,few clouds
505,Vestmanna,FO,62.1564,-7.1664,43.72,100.00%,90.00%,23.02,overcast clouds
506,Kathmandu,NP,27.7167,85.3167,70.02,88.00%,75.00%,3.44,broken clouds
507,Ailigandi,PA,9.2333,-78.0167,83.37,79.00%,99.00%,10.33,overcast clouds
508,Mazatlan,MX,23.2167,-106.4167,91.36,62.00%,20.00%,5.75,few clouds
509,Boyuibe,BO,-20.4167,-63.2833,64.31,49.00%,100.00%,7.02,overcast clouds
510,Aripuana,BR,-9.1667,-60.6333,88.14,50.00%,98.00%,4.41,overcast clouds
511,Gambo,CF,4.6482,22.2633,70.97,98.00%,93.00%,1.83,overcast clouds
512,Ketchikan,US,55.3422,-131.6461,46.87,71.00%,20.00%,8.05,few clouds
513,Chapais,CA,49.7834,-74.8492,60.58,46.00%,19.00%,3.49,few clouds
514,Vranjska Banja,RS,42.555,21.9922,50.49,52.00%,0.00%,4.21,clear sky
515,Salym,RU,60.0625,71.4789,30.2,86.00%,100.00%,3.62,overcast clouds
516,Quzhou,CN,28.9594,118.8686,70.48,97.00%,3.00%,4.29,clear sky
517,Alyangula,AU,-13.8483,136.4192,76.87,94.00%,54.00%,5.75,broken clouds
518,Lubango,AO,-14.9172,13.4925,63.43,38.00%,28.00%,5.01,scattered clouds
519,Malanje,AO,-9.5402,16.341,70.03,62.00%,11.00%,5.55,few clouds
520,Lakatoro,VU,-16.0999,167.4164,81.3,78.00%,21.00%,4.32,few clouds
521,Saint-Joseph,RE,-21.3667,55.6167,70.18,83.00%,37.00%,2.66,light rain
522,Palmer,US,42.1584,-72.3287,58.68,85.00%,90.00%,5.75,mist
523,Muros,ES,42.7762,-9.0603,62.24,94.00%,100.00%,17.74,light rain
524,Lagos,NG,6.5833,3.75,80.92,90.00%,29.00%,2.62,scattered clouds
525,Lunsar,SL,8.6833,-12.5333,74.43,96.00%,100.00%,5.23,moderate rain
526,Chalmette,US,29.9427,-89.9634,86.13,68.00%,75.00%,1.99,thunderstorm
527,Hualmay,PE,-11.0964,-77.6139,65.64,73.00%,25.00%,10.16,scattered clouds
528,Sisimiut,GL,66.9395,-53.6735,35.2,76.00%,67.00%,5.82,broken clouds
529,Sault Sainte Marie,CA,46.5168,-84.3333,70.09,72.00%,40.00%,8.05,scattered clouds
530,Kamenka,RU,51.3223,42.7678,48.45,74.00%,100.00%,10.18,overcast clouds
531,Comodoro Rivadavia,AR,-45.8667,-67.5,58.86,44.00%,0.00%,13.8,clear sky
532,Pabbi,PK,34.0106,71.7989,75.88,66.00%,1.00%,0.67,clear sky
533,Yuli,NG,9.6989,10.2744,80.46,70.00%,40.00%,2.98,scattered clouds
534,Gizo,SB,-8.103,156.8419,82.22,76.00%,100.00%,7.45,light rain
535,Elat,IL,29.5581,34.9482,80.44,50.00%,0.00%,18.41,clear sky
536,Harper,LR,4.375,-7.7169,77.68,88.00%,16.00%,6.24,light rain
537,Qaqortoq,GL,60.7167,-46.0333,39.7,64.00%,9.00%,0.94,clear sky
538,Cockburn Town,TC,21.4612,-71.1419,84.16,65.00%,75.00%,13.8,broken clouds
539,Ryotsu,JP,38.0833,138.4333,70.84,79.00%,92.00%,6.91,overcast clouds
540,Palu,ID,-0.8917,119.8707,75.15,91.00%,100.00%,2.77,overcast clouds
541,Nianzishan,CN,47.5167,122.8833,40.06,65.00%,20.00%,5.06,few clouds
542,Tual,ID,-5.6667,132.75,81.03,72.00%,16.00%,6.58,few clouds
543,Curanilahue,CL,-37.4667,-73.35,56.23,56.00%,45.00%,8.23,scattered clouds
544,Patancheru,IN,17.5314,78.265,74.26,86.00%,52.00%,5.53,broken clouds
545,Batouri,CM,4.4333,14.3667,67.19,98.00%,100.00%,1.57,overcast clouds
546,Kyshtovka,RU,56.555,76.6271,33.12,89.00%,100.00%,12.15,overcast clouds
547,Tatawin,TN,32.9297,10.4518,85.08,45.00%,3.00%,8.63,clear sky
548,Antalaha,MG,-14.9003,50.2788,68.36,91.00%,13.00%,4.85,few clouds
549,Lagoa,PT,39.05,-27.9833,71.44,85.00%,100.00%,5.79,overcast clouds
550,Ouadda,CF,8.0777,22.4007,68.58,92.00%,32.00%,1.25,scattered clouds
551,Tessalit,ML,20.1986,1.0114,88.45,12.00%,9.00%,11.25,clear sky
552,Aykhal,RU,66.0,111.5,25.16,95.00%,81.00%,9.84,broken clouds
553,Tadine,NC,-21.55,167.8833,74.43,88.00%,47.00%,11.54,scattered clouds
554,Tashtagol,RU,52.7657,87.8894,32.79,74.00%,99.00%,3.98,overcast clouds
555,Kapuskasing,CA,49.4169,-82.4331,66.2,55.00%,75.00%,2.3,broken clouds
556,Olafsvik,IS,64.8945,-23.7142,39.65,69.00%,58.00%,19.06,broken clouds
557,Muromtsevo,RU,56.3724,75.2418,32.58,90.00%,100.00%,9.84,overcast clouds
558,Srednekolymsk,RU,67.45,153.6833,19.36,95.00%,95.00%,6.11,overcast clouds
559,Praia Da Vitoria,PT,38.7333,-27.0667,72.75,88.00%,20.00%,8.12,few clouds
560,Nikki,BJ,9.9401,3.2108,76.77,77.00%,12.00%,3.85,few clouds
561,Teguldet,RU,57.3064,88.1667,28.08,93.00%,36.00%,6.26,scattered clouds
562,Tayoltita,MX,24.0833,-105.9333,82.26,58.00%,96.00%,3.36,overcast clouds
563,Sherwood,US,34.8151,-92.2243,82.2,51.00%,75.00%,1.01,broken clouds
564,Guiyang,CN,26.5833,106.7167,68.49,77.00%,20.00%,8.95,few clouds
565,Yurga,RU,55.7231,84.8861,30.9,90.00%,99.00%,11.92,overcast clouds
566,Kloulklubed,PW,7.0419,134.2556,79.3,75.00%,100.00%,11.27,moderate rain
567,Thinadhoo,MV,0.5333,72.9333,83.61,75.00%,14.00%,19.3,few clouds
568,Tokamachi,JP,37.1333,138.7667,63.01,74.00%,15.00%,4.41,few clouds
569,Sao Gabriel Da Cachoeira,BR,-0.1303,-67.0892,81.5,81.00%,100.00%,1.54,overcast clouds
570,Krasnyy Yar,RU,46.5331,48.3456,51.73,57.00%,100.00%,7.76,overcast clouds
571,Dubrovka,RU,53.6907,33.5071,44.58,92.00%,0.00%,5.79,clear sky
572,Port Said,EG,31.2565,32.2841,75.18,78.00%,40.00%,11.5,scattered clouds
573,Camana,PE,-16.6228,-72.7111,63.45,74.00%,70.00%,8.39,broken clouds
574,Kailua,US,21.4022,-157.7394,84.18,69.00%,40.00%,10.36,scattered clouds
575,Leningradskiy,RU,69.3833,178.4167,21.42,93.00%,100.00%,0.43,overcast clouds
576,Villa Bruzual,VE,9.3328,-69.1208,83.28,79.00%,100.00%,0.89,overcast clouds
577,Sao Joao Da Barra,BR,-21.6403,-41.0511,82.49,84.00%,53.00%,15.93,broken clouds
578,San Felipe,VE,10.3399,-68.7425,80.46,84.00%,91.00%,5.84,overcast clouds
579,Hope,US,33.6671,-93.5916,86.07,45.00%,82.00%,1.68,broken clouds
580,Odweyne,SO,9.4092,45.064,77.29,59.00%,99.00%,9.95,light rain
581,Mao,ES,39.8885,4.2658,59.56,82.00%,20.00%,3.44,few clouds
582,Cefalu,IT,38.0386,14.0229,76.53,67.00%,32.00%,4.0,scattered clouds
583,Hay River,CA,60.8156,-115.7999,39.18,81.00%,75.00%,17.27,light intensity drizzle
584,Rakai,UG,-0.72,31.4839,63.36,84.00%,62.00%,3.31,broken clouds
585,Dongning,CN,44.0622,131.1207,45.54,70.00%,100.00%,1.97,overcast clouds
586,Barcelona,ES,41.3888,2.159,63.54,89.00%,20.00%,6.91,few clouds
587,Gornopravdinsk,RU,60.05,69.9,29.86,82.00%,100.00%,3.98,overcast clouds
588,Ust-Nera,RU,64.5667,143.2,19.44,95.00%,86.00%,2.33,overcast clouds
589,Zeya,RU,53.75,127.2667,30.96,75.00%,85.00%,2.39,overcast clouds
590,Karpathos,GR,35.507,27.2132,67.96,73.00%,0.00%,28.77,clear sky
591,Santiago Del Estero,AR,-27.7951,-64.2615,75.81,13.00%,0.00%,9.19,clear sky
592,Atambua,ID,-9.1061,124.8925,71.74,85.00%,10.00%,1.32,clear sky
593,Bereda,ES,43.2686,-7.5406,60.01,99.00%,99.00%,8.72,overcast clouds
594,Qasigiannguit,GL,68.8193,-51.1922,20.41,88.00%,17.00%,5.35,few clouds
595,Sambava,MG,-14.2667,50.1667,71.42,89.00%,55.00%,6.53,broken clouds
596,Daru,PG,-9.0763,143.2092,78.6,82.00%,60.00%,8.79,broken clouds
597,Channel-Port Aux Basques,CA,47.5702,-59.1367,48.76,72.00%,71.00%,19.51,broken clouds
598,Honningsvag,NO,70.9821,25.9704,50.29,82.00%,100.00%,24.92,overcast clouds
599,Shirokiy,RU,49.758,129.523,31.01,73.00%,0.00%,5.32,clear sky
600,Vostok,RU,46.4856,135.8833,30.51,95.00%,39.00%,4.18,scattered clouds
601,Auki,SB,-8.7676,160.7034,80.11,81.00%,81.00%,4.5,broken clouds
602,Almaznyy,RU,48.0448,40.045,48.34,66.00%,100.00%,11.05,overcast clouds
603,Maxixe,MZ,-23.8597,35.3472,71.31,89.00%,100.00%,11.12,light rain
604,Kununurra,AU,-15.7667,128.7333,73.38,83.00%,0.00%,11.5,clear sky
605,Kaniv,UA,49.7518,31.46,44.85,73.00%,15.00%,7.18,few clouds
606,Mapiri,BO,-15.25,-68.1667,73.0,95.00%,99.00%,1.61,overcast clouds
607,Pandan,PH,14.0453,124.1694,79.34,87.00%,100.00%,6.64,moderate rain
608,Paamiut,GL,61.994,-49.6678,37.18,71.00%,19.00%,11.61,few clouds
609,Pismo Beach,US,35.1428,-120.6413,89.17,42.00%,1.00%,1.99,clear sky
610,Erzurum,TR,40.0,41.5,42.48,76.00%,100.00%,5.53,overcast clouds
611,Marawi,PH,7.9986,124.2928,64.65,94.00%,100.00%,6.76,overcast clouds
612,Denpasar,ID,-8.65,115.2167,76.71,88.00%,40.00%,4.61,scattered clouds
613,Dingtao,CN,35.0683,115.5625,56.68,93.00%,100.00%,19.98,light rain
614,Zharkent,KZ,44.1628,80.0,46.87,45.00%,1.00%,7.07,clear sky
615,Winnemucca,US,40.973,-117.7357,80.65,9.00%,1.00%,3.44,clear sky
616,Xiongzhou,CN,25.1167,114.3,75.67,72.00%,0.00%,0.6,clear sky
617,Kaniama,CD,-7.5667,24.1833,68.5,91.00%,36.00%,2.55,moderate rain
618,Moerai,PF,-22.4333,-151.3333,73.76,73.00%,5.00%,18.99,clear sky
619,Tukrah,LY,32.5341,20.5791,70.57,69.00%,0.00%,12.08,clear sky
620,Funadhoo,MV,6.15,73.2667,81.36,81.00%,100.00%,19.6,light rain
621,Tarko-Sale,RU,64.9225,77.785,30.15,97.00%,100.00%,16.46,snow
622,Carhuamayo,PE,-10.9167,-76.0333,45.91,66.00%,92.00%,14.07,overcast clouds
623,Conceicao Do Araguaia,BR,-8.2578,-49.2647,90.82,38.00%,93.00%,5.79,overcast clouds
624,Vao,NC,-22.6667,167.4833,70.65,87.00%,0.00%,13.15,clear sky
625,Takoradi,GH,4.8845,-1.7554,77.94,89.00%,13.00%,6.26,few clouds
626,Dourbali,TD,11.8091,15.8632,80.33,70.00%,78.00%,1.7,broken clouds
627,Kannur,IN,11.8675,75.3576,76.57,93.00%,84.00%,1.66,broken clouds
628,Bayburt,TR,40.2589,40.2278,44.55,79.00%,100.00%,2.1,overcast clouds
629,Torbay,CA,47.6666,-52.7314,48.58,89.00%,75.00%,9.22,light rain
630,Kajaani,FI,64.2273,27.7285,50.05,76.00%,0.00%,17.27,clear sky
631,Awbari,LY,26.5921,12.7805,78.85,25.00%,0.00%,7.2,clear sky
632,Myaundzha,RU,63.0494,147.1858,15.15,73.00%,31.00%,6.04,scattered clouds
633,Takhtamygda,RU,54.1,123.5667,28.18,83.00%,100.00%,2.77,overcast clouds
634,Brae,GB,60.3964,-1.353,51.71,87.00%,22.00%,10.27,few clouds
635,Polis,CY,35.0367,32.4264,67.82,73.00%,1.00%,3.71,clear sky
636,Avdon,RU,54.6667,55.7167,27.25,74.00%,0.00%,6.71,clear sky
637,Korfovskiy,RU,48.2183,135.0564,33.26,88.00%,0.00%,4.97,clear sky
638,Le Port,RE,-20.9373,55.2919,71.6,80.00%,18.00%,5.82,few clouds
639,Biak,ID,-0.9131,122.8766,75.11,77.00%,100.00%,2.1,overcast clouds
640,Madison,US,34.7334,-86.5667,81.1,68.00%,20.00%,1.01,few clouds
641,Mayor Pablo Lagerenza,PY,-19.9309,-60.7718,58.71,58.00%,100.00%,8.16,overcast clouds
642,Filingue,NE,14.3521,3.3168,94.59,25.00%,20.00%,6.98,few clouds
643,Beloha,MG,-25.1667,45.05,69.39,82.00%,100.00%,10.31,overcast clouds
644,Bilisht,AL,40.6275,20.99,53.76,47.00%,0.00%,2.93,clear sky
645,Oriximina,BR,-1.7656,-55.8661,86.47,57.00%,99.00%,4.12,overcast clouds
646,Camapua,BR,-19.5314,-54.0439,80.69,65.00%,79.00%,4.27,light rain
647,Aswan,EG,24.0934,32.907,83.5,28.00%,0.00%,8.05,clear sky
648,Payo,ID,-3.7508,103.6372,73.51,99.00%,100.00%,2.33,moderate rain
649,Grenaa,DK,56.4158,10.8783,55.62,92.00%,0.00%,16.35,clear sky
650,North Bend,US,43.4065,-124.2243,66.24,94.00%,1.00%,6.91,clear sky
651,Jumla,NP,29.2747,82.1838,53.4,92.00%,51.00%,3.6,broken clouds
652,Zonguldak,TR,41.25,31.8333,47.12,92.00%,96.00%,1.77,overcast clouds
653,Road Town,VG,18.4167,-64.6167,87.89,62.00%,20.00%,16.11,few clouds
654,Ibotirama,BR,-12.1853,-43.2206,90.81,17.00%,32.00%,3.06,scattered clouds
655,Macamic,CA,48.7502,-78.9996,64.63,50.00%,4.00%,2.44,clear sky
656,Faya,SA,18.3851,42.4509,64.51,53.00%,87.00%,0.2,overcast clouds
657,Port Arthur,CN,38.8,121.2667,53.82,84.00%,100.00%,27.2,heavy intensity rain
658,Sakaiminato,JP,35.55,133.2333,62.58,94.00%,20.00%,2.3,few clouds
659,Syamzha,RU,60.0158,41.0614,37.83,96.00%,8.00%,4.85,clear sky
660,Kenai,US,60.5544,-151.2583,44.1,72.00%,1.00%,0.0,clear sky
661,Zhigansk,RU,66.7697,123.3711,26.62,83.00%,96.00%,4.79,overcast clouds
662,Darlington,GB,54.5243,-1.5504,51.12,83.00%,20.00%,11.5,few clouds
663,Shediac,CA,46.2198,-64.5411,59.52,55.00%,20.00%,6.91,few clouds
664,Peebles,GB,55.6519,-3.1888,45.97,54.00%,26.00%,5.06,scattered clouds
665,Eyl,SO,7.9803,49.8164,77.63,87.00%,15.00%,17.74,few clouds
666,Dhidhdhoo,MV,6.8833,73.1,80.98,81.00%,100.00%,19.66,heavy intensity rain
667,Prince Rupert,CA,54.3161,-130.3201,44.69,88.00%,90.00%,4.61,light rain
668,Coari,BR,-4.085,-63.1414,83.52,75.00%,94.00%,3.56,overcast clouds
669,Kapustin Yar,RU,48.5831,45.7372,53.35,64.00%,100.00%,12.39,overcast clouds
670,Polunochnoye,RU,60.8697,60.4153,27.82,88.00%,59.00%,3.58,broken clouds
671,Braniewo,PL,54.3797,19.8196,55.98,78.00%,100.00%,7.23,overcast clouds
672,Kollam,IN,8.8833,76.6,78.67,86.00%,100.00%,1.88,overcast clouds
673,Sampit,ID,-2.5333,112.95,71.06,98.00%,94.00%,2.1,overcast clouds
674,Yangambi,CD,0.8102,24.4336,67.3,96.00%,100.00%,1.41,light rain
675,Talavera De La Reina,ES,39.9635,-4.8308,58.23,50.00%,0.00%,0.58,clear sky
