,City,Country,Lat,Lng,Max Temp,Humidity,Cloudiness,Wind Speed,Current Description
0,Hermanus,ZA,-34.4187,19.2345,55.90 F,72.00%,44.00%,8.08,light rain
1,Hohhot,CN,40.8106,111.6522,52.09 F,37.00%,0.00%,8.95,clear sky
2,East London,ZA,-33.0153,27.9116,59.94 F,72.00%,20.00%,9.22,light rain
3,Ribeira Grande,PT,38.5167,-28.7,75.60 F,78.00%,20.00%,10.36,few clouds
4,Pangnirtung,CA,66.1451,-65.7125,32.00 F,100.00%,90.00%,6.91,mist
5,Katsuura,JP,35.1333,140.3,70.11 F,80.00%,2.00%,6.15,clear sky
6,Walvis Bay,NA,-22.9575,14.5053,59.95 F,63.00%,0.00%,5.75,clear sky
7,Saldanha,ZA,-33.0117,17.9442,57.25 F,71.00%,1.00%,21.39,clear sky
8,Butaritari,KI,3.0707,172.7902,82.83 F,63.00%,83.00%,16.24,broken clouds
9,Ushuaia,AR,-54.8,-68.3,51.46 F,43.00%,75.00%,14.97,light rain
10,Chokurdakh,RU,70.6333,147.9167,20.46 F,96.00%,100.00%,8.97,overcast clouds
11,Carnarvon,AU,-24.8667,113.6333,64.47 F,82.00%,1.00%,14.97,clear sky
12,Margate,GB,51.3813,1.3862,57.06 F,75.00%,39.00%,3.0,scattered clouds
13,Jamestown,US,42.097,-79.2353,69.71 F,88.00%,90.00%,8.05,overcast clouds
14,Iqaluit,CA,63.7506,-68.5145,40.73 F,75.00%,75.00%,4.0,broken clouds
15,Kirakira,SB,-10.4544,161.9205,78.80 F,85.00%,87.00%,0.81,overcast clouds
16,New Norfolk,AU,-42.7826,147.0587,53.74 F,83.00%,67.00%,1.68,broken clouds
17,Hilo,US,19.7297,-155.09,76.80 F,81.00%,90.00%,3.44,light rain
18,Albany,US,42.6001,-73.9662,67.48 F,84.00%,100.00%,1.28,overcast clouds
19,Kodiak,US,57.79,-152.4072,36.91 F,65.00%,1.00%,10.36,clear sky
20,Tura,IN,25.5198,90.2201,71.89 F,98.00%,41.00%,4.03,scattered clouds
21,Busselton,AU,-33.65,115.3333,43.09 F,59.00%,91.00%,5.37,overcast clouds
22,Port Blair,IN,11.6667,92.75,79.99 F,83.00%,55.00%,6.44,broken clouds
23,Kijang,KR,35.2442,129.2139,65.93 F,83.00%,38.00%,7.83,scattered clouds
24,Vila Franca Do Campo,PT,37.7167,-25.4333,76.19 F,75.00%,91.00%,3.76,overcast clouds
25,Valleyview,CA,55.0667,-117.2859,46.44 F,49.00%,71.00%,17.27,broken clouds
26,Rocha,UY,-34.4833,-54.3333,57.81 F,52.00%,82.00%,15.28,broken clouds
27,Havelock,US,34.8791,-76.9013,81.01 F,64.00%,20.00%,5.01,few clouds
28,Mataura,NZ,-46.1927,168.8643,44.47 F,92.00%,100.00%,6.91,moderate rain
29,Oussouye,SN,12.485,-16.5469,91.58 F,70.00%,66.00%,8.68,broken clouds
30,Ayan,RU,56.45,138.1667,39.65 F,61.00%,97.00%,14.41,overcast clouds
31,Qaanaaq,GL,77.484,-69.3632,31.84 F,97.00%,100.00%,8.23,light snow
32,Atuona,PF,-9.8,-139.0333,77.72 F,73.00%,74.00%,18.28,broken clouds
33,Yellowknife,CA,62.456,-114.3525,50.41 F,53.00%,40.00%,11.5,scattered clouds
34,Sorong,ID,-0.8833,131.25,76.95 F,88.00%,100.00%,9.78,overcast clouds
35,Cabo San Lucas,MX,22.8909,-109.9124,90.52 F,58.00%,20.00%,3.44,few clouds
36,Cape Town,ZA,-33.9258,18.4232,58.26 F,53.00%,20.00%,12.66,few clouds
37,Horta,PT,38.5333,-28.6333,74.84 F,78.00%,20.00%,10.36,few clouds
38,Gilbues,BR,-9.8317,-45.3439,101.41 F,15.00%,10.00%,9.64,clear sky
39,Caravelas,BR,-17.7125,-39.2481,81.77 F,67.00%,3.00%,14.52,clear sky
40,Terra Rica,BR,-22.7094,-52.6169,83.28 F,60.00%,73.00%,1.74,broken clouds
41,Nikolskoye,RU,59.7035,30.7861,51.87 F,83.00%,2.00%,7.92,clear sky
42,Ternate,ID,0.8,127.4,80.13 F,81.00%,82.00%,6.06,broken clouds
43,Salalah,OM,17.0151,54.0924,80.15 F,83.00%,76.00%,6.55,broken clouds
44,Lasa,IT,46.6166,10.7002,59.02 F,98.00%,90.00%,5.64,overcast clouds
45,Marshall,US,34.3834,-86.3333,72.07 F,92.00%,90.00%,3.0,light rain
46,Anan,JP,33.9167,134.65,65.98 F,74.00%,0.00%,8.77,clear sky
47,Tynda,RU,55.1667,124.7167,26.15 F,84.00%,6.00%,4.03,clear sky
48,Sao Filipe,CV,14.8961,-24.4956,80.02 F,77.00%,63.00%,7.0,broken clouds
49,Mabaruma,GY,8.2,-59.7833,78.80 F,92.00%,100.00%,4.38,overcast clouds
50,Rikitea,PF,-23.1203,-134.9692,73.13 F,65.00%,21.00%,16.87,few clouds
51,Hithadhoo,MV,-0.6,73.0833,83.53 F,75.00%,80.00%,16.04,broken clouds
52,Lucea,JM,18.451,-78.1736,85.86 F,73.00%,15.00%,13.06,few clouds
53,Salinas,US,36.6777,-121.6555,91.20 F,33.00%,1.00%,13.8,clear sky
54,Raga,SS,8.4596,25.678,74.05 F,81.00%,74.00%,3.33,broken clouds
55,Forst,DE,51.7333,14.6333,63.84 F,69.00%,99.00%,9.46,overcast clouds
56,Belyy Yar,RU,53.6039,91.3903,26.49 F,86.00%,0.00%,2.24,clear sky
57,Narsaq,GL,60.9167,-46.05,45.37 F,51.00%,1.00%,5.82,clear sky
58,Pangkalanbuun,ID,-2.6833,111.6167,72.81 F,99.00%,100.00%,0.2,moderate rain
59,Wakkanai,JP,45.4094,141.6739,64.42 F,85.00%,99.00%,26.06,light rain
60,Egvekinot,RU,66.3167,-179.1667,24.96 F,97.00%,100.00%,2.86,light snow
61,La Spezia,IT,44.1105,9.8434,72.07 F,77.00%,70.00%,5.01,broken clouds
62,Lanigan,CA,51.8501,-105.0344,59.29 F,18.00%,24.00%,11.16,few clouds
63,Victoria,HK,22.2855,114.1577,85.32 F,78.00%,60.00%,1.01,light rain
64,Castro,BR,-24.7911,-50.0119,65.73 F,93.00%,100.00%,6.67,moderate rain
65,Necochea,AR,-38.5473,-58.7368,54.03 F,58.00%,6.00%,22.59,clear sky
66,Kahului,US,20.8947,-156.47,79.84 F,74.00%,20.00%,3.44,few clouds
67,Touros,BR,-5.1989,-35.4608,88.70 F,63.00%,32.00%,18.12,scattered clouds
68,Saint-Philippe,RE,-21.3585,55.7679,72.99 F,83.00%,36.00%,15.59,scattered clouds
69,Vaini,TO,-21.2,-175.2,73.56 F,88.00%,75.00%,10.36,broken clouds
70,Racaciuni,RO,46.3333,26.9833,49.44 F,57.00%,59.00%,3.27,broken clouds
71,Gorom-Gorom,BF,14.4439,-0.2361,96.94 F,10.00%,4.00%,9.4,clear sky
72,Kamyshevatskaya,RU,46.4132,37.9563,59.61 F,51.00%,88.00%,19.17,overcast clouds
73,Torbay,CA,47.6666,-52.7314,61.75 F,77.00%,75.00%,5.75,broken clouds
74,The Valley,AI,18.217,-63.0578,89.46 F,66.00%,20.00%,16.11,few clouds
75,Portland,US,45.5234,-122.6762,65.05 F,72.00%,75.00%,1.01,broken clouds
76,Mahebourg,MU,-20.4081,57.7,73.26 F,88.00%,75.00%,16.11,broken clouds
77,Husavik,IS,66.0449,-17.3389,44.51 F,95.00%,95.00%,16.02,overcast clouds
78,Upernavik,GL,72.7868,-56.1549,33.39 F,60.00%,100.00%,1.57,overcast clouds
79,Bredasdorp,ZA,-34.5322,20.0403,52.29 F,82.00%,43.00%,4.61,scattered clouds
80,Nome,US,64.5011,-165.4064,21.27 F,86.00%,1.00%,5.75,clear sky
81,Camana,PE,-16.6228,-72.7111,64.60 F,74.00%,85.00%,10.16,overcast clouds
82,Kangalassy,RU,62.3464,129.9628,21.13 F,86.00%,8.00%,4.9,clear sky
83,Urusha,RU,54.05,122.9,27.97 F,77.00%,10.00%,2.77,clear sky
84,Naze,JP,28.3667,129.4833,77.25 F,63.00%,0.00%,19.82,clear sky
85,Klaksvik,FO,62.2266,-6.589,49.12 F,89.00%,100.00%,31.36,overcast clouds
86,Sambava,MG,-14.2667,50.1667,72.54 F,87.00%,10.00%,7.96,clear sky
87,Tuatapere,NZ,-46.1333,167.6833,44.82 F,94.00%,100.00%,3.6,light rain
88,Nantucket,US,41.2835,-70.0995,73.74 F,78.00%,40.00%,14.97,scattered clouds
89,Lagoa,PT,39.05,-27.9833,70.99 F,90.00%,94.00%,11.18,overcast clouds
90,Bethel,US,41.3712,-73.414,77.02 F,67.00%,75.00%,5.75,broken clouds
91,Tasiilaq,GL,65.6145,-37.6368,30.06 F,54.00%,0.00%,7.09,clear sky
92,Guerrero Negro,MX,27.9769,-114.0611,83.07 F,45.00%,63.00%,2.24,broken clouds
93,Bambous Virieux,MU,-20.3428,57.7575,73.22 F,88.00%,75.00%,16.11,broken clouds
94,Tuktoyaktuk,CA,69.4541,-133.0374,33.80 F,93.00%,90.00%,19.57,overcast clouds
95,Makakilo City,US,21.3469,-158.0858,77.32 F,83.00%,40.00%,3.44,light intensity drizzle
96,Linqing,CN,36.8456,115.7117,68.76 F,97.00%,100.00%,9.48,light rain
97,Saskylakh,RU,71.9167,114.0833,16.02 F,93.00%,65.00%,10.31,broken clouds
98,Dryden,CA,49.7833,-92.7503,57.49 F,82.00%,75.00%,5.75,broken clouds
99,Broken Hill,AU,-31.95,141.4333,51.51 F,58.00%,0.00%,8.05,clear sky
100,Kampene,CD,-3.6,26.6667,69.19 F,91.00%,100.00%,1.83,overcast clouds
101,Fallingbostel,DE,52.8667,9.7,71.98 F,68.00%,100.00%,14.32,light rain
102,Poum,NC,-20.2333,164.0167,74.62 F,85.00%,41.00%,14.67,scattered clouds
103,Hobart,AU,-42.8794,147.3294,54.10 F,95.00%,90.00%,0.0,overcast clouds
104,Punta Arenas,CL,-53.15,-70.9167,50.11 F,66.00%,75.00%,31.07,light rain
105,Tezu,IN,27.9167,96.1667,74.16 F,98.00%,91.00%,1.7,light rain
106,Hambantota,LK,6.1241,81.1185,80.49 F,82.00%,22.00%,13.69,few clouds
107,Barrow,US,71.2906,-156.7887,28.42 F,86.00%,90.00%,9.22,mist
108,Tandur,IN,17.2333,77.5833,80.04 F,73.00%,99.00%,2.42,overcast clouds
109,Eenhana,NA,-17.4667,16.3333,83.95 F,13.00%,24.00%,6.42,few clouds
110,Bluff,NZ,-46.6,168.3333,44.80 F,85.00%,100.00%,22.62,light rain
111,Sovetskiy,RU,61.3614,63.5842,28.78 F,81.00%,44.00%,4.85,scattered clouds
112,Ahipara,NZ,-35.1667,173.1667,61.18 F,97.00%,100.00%,11.34,moderate rain
113,Kaitangata,NZ,-46.2817,169.8464,49.93 F,83.00%,100.00%,12.86,overcast clouds
114,Lebu,CL,-37.6167,-73.65,53.02 F,68.00%,22.00%,22.35,few clouds
115,Puerto Ayora,EC,-0.7393,-90.3518,72.79 F,76.00%,50.00%,11.7,scattered clouds
116,Miastko,PL,54.0028,16.9826,59.52 F,54.00%,92.00%,13.62,overcast clouds
117,Constitucion,CL,-35.3333,-72.4167,59.34 F,50.00%,0.00%,19.66,clear sky
118,Pioner,RU,55.3166,85.9508,33.24 F,93.00%,75.00%,4.47,broken clouds
119,Ortakoy,TR,38.7373,34.0387,53.85 F,50.00%,3.00%,4.32,clear sky
120,Sungaipenuh,ID,-2.0833,101.3833,65.34 F,96.00%,100.00%,0.54,overcast clouds
121,Nadym,RU,65.5333,72.5167,32.74 F,79.00%,98.00%,7.27,overcast clouds
122,Tiksi,RU,71.6872,128.8694,24.31 F,92.00%,74.00%,10.6,broken clouds
123,Buenos Aires,AR,-34.6132,-58.3772,62.02 F,33.00%,20.00%,11.5,few clouds
124,Fortuna,US,40.5982,-124.1573,58.12 F,100.00%,1.00%,0.0,clear sky
125,Sao Joao Da Barra,BR,-21.6403,-41.0511,84.29 F,77.00%,34.00%,17.54,scattered clouds
126,Kapaa,US,22.0752,-159.319,75.18 F,84.00%,75.00%,8.05,light rain
127,Aklavik,CA,68.2191,-135.0107,34.63 F,93.00%,90.00%,16.11,light intensity drizzle
128,Port Elizabeth,ZA,-33.918,25.5701,57.09 F,71.00%,20.00%,10.36,few clouds
129,Altay,CN,47.8667,88.1167,33.01 F,45.00%,56.00%,4.59,broken clouds
130,Gusau,NG,12.1628,6.6614,86.34 F,33.00%,0.00%,1.74,clear sky
131,Matadi,CD,-5.8167,13.45,85.28 F,56.00%,57.00%,11.81,broken clouds
132,Bowen,AU,-20.0167,148.2333,73.62 F,94.00%,9.00%,5.82,clear sky
133,Talnakh,RU,69.4865,88.3972,15.13 F,96.00%,78.00%,1.21,broken clouds
134,Galbshtadt,RU,53.2264,78.9845,38.68 F,59.00%,100.00%,6.33,overcast clouds
135,Bandarbeyla,SO,9.4942,50.8122,78.85 F,84.00%,57.00%,22.48,broken clouds
136,Bideford,GB,51.0179,-4.2046,58.71 F,83.00%,35.00%,16.33,scattered clouds
137,Marsa Matruh,EG,31.3525,27.2453,75.40 F,53.00%,20.00%,11.5,few clouds
138,Port Alfred,ZA,-33.5906,26.891,57.11 F,71.00%,40.00%,8.46,light rain
139,Lazaro Cardenas,MX,17.9583,-102.2,85.82 F,62.00%,59.00%,3.71,broken clouds
140,Uyemskiy,RU,64.4743,40.8524,46.45 F,93.00%,40.00%,4.47,scattered clouds
141,Xining,CN,36.6167,101.7667,38.21 F,92.00%,100.00%,1.41,overcast clouds
142,Bulawayo,ZW,-20.15,28.5833,70.81 F,52.00%,88.00%,8.77,overcast clouds
143,Vostok,RU,46.4856,135.8833,44.55 F,98.00%,67.00%,5.14,light rain
144,Bengkulu,ID,-3.8004,102.2655,75.63 F,91.00%,88.00%,4.92,overcast clouds
145,Komsomolskiy,UZ,40.4272,71.7189,57.92 F,77.00%,75.00%,6.91,broken clouds
146,Novyy Urengoy,RU,66.0833,76.6333,32.14 F,70.00%,63.00%,9.31,broken clouds
147,Cagliari,IT,39.245,9.0912,77.09 F,77.00%,20.00%,10.36,few clouds
148,Totness,SR,5.8833,-56.3167,84.78 F,70.00%,100.00%,9.22,overcast clouds
149,Pisco,PE,-13.7,-76.2167,66.25 F,72.00%,90.00%,13.8,overcast clouds
150,Qena,EG,26.1615,32.7183,84.31 F,28.00%,0.00%,15.57,clear sky
151,Sungai Padi,TH,6.0851,101.8766,78.58 F,94.00%,94.00%,1.48,overcast clouds
152,Kabanjahe,ID,3.1001,98.4908,65.16 F,97.00%,72.00%,2.44,broken clouds
153,Celestun,MX,20.8667,-90.4,88.18 F,57.00%,60.00%,7.78,broken clouds
154,Umea,SE,63.8284,20.2597,53.53 F,82.00%,0.00%,16.11,clear sky
155,San Patricio,US,28.017,-97.5169,88.21 F,58.00%,57.00%,7.87,broken clouds
156,Mayor Pablo Lagerenza,PY,-19.9309,-60.7718,85.57 F,51.00%,100.00%,7.43,overcast clouds
157,Jardim,BR,-21.4803,-56.1381,94.59 F,33.00%,65.00%,11.25,broken clouds
158,Inuvik,CA,68.3499,-133.7218,34.66 F,100.00%,90.00%,14.97,light intensity drizzle
159,Wajima,JP,37.4,136.9,70.75 F,71.00%,0.00%,8.48,clear sky
160,Choma,ZM,-16.8065,26.9531,73.90 F,51.00%,97.00%,1.25,overcast clouds
161,Vestmannaeyjar,IS,63.4427,-20.2734,50.99 F,66.00%,0.00%,5.75,clear sky
162,Elizabethtown,US,37.694,-85.8591,68.09 F,99.00%,90.00%,4.61,overcast clouds
163,Estacion Coahuila,MX,32.1939,-115.0017,90.61 F,14.00%,94.00%,5.01,overcast clouds
164,Arraial Do Cabo,BR,-22.9661,-42.0278,84.16 F,83.00%,75.00%,13.8,broken clouds
165,Saiha,IN,22.4833,92.9667,69.30 F,99.00%,76.00%,1.59,broken clouds
166,Port Hardy,CA,50.6996,-127.4199,51.98 F,82.00%,75.00%,4.61,broken clouds
167,Mozarlandia,BR,-14.7447,-50.5706,98.85 F,25.00%,47.00%,8.19,scattered clouds
168,Taoudenni,ML,22.6783,-3.9836,101.52 F,8.00%,55.00%,5.55,broken clouds
169,Haines Junction,CA,60.7522,-137.5108,31.95 F,93.00%,100.00%,1.14,light snow
170,Riyadh,SA,24.6877,46.7219,91.54 F,12.00%,66.00%,8.68,broken clouds
171,Quatre Cocos,MU,-20.2078,57.7625,73.09 F,78.00%,24.00%,16.53,few clouds
172,Port Lincoln,AU,-34.7333,135.8667,52.50 F,65.00%,6.00%,24.87,clear sky
173,Zanjan,IR,36.6736,48.4787,59.85 F,61.00%,24.00%,9.26,few clouds
174,Kimbe,PG,-5.5502,150.1429,75.43 F,90.00%,95.00%,3.78,overcast clouds
175,Faanui,PF,-16.4833,-151.75,78.78 F,71.00%,22.00%,10.83,few clouds
176,Thompson,CA,55.7435,-97.8558,57.36 F,72.00%,75.00%,3.44,broken clouds
177,Maumere,ID,-8.6199,122.2111,78.48 F,80.00%,53.00%,7.0,broken clouds
178,Fukue,JP,32.6881,128.8419,77.00 F,73.00%,1.00%,18.88,clear sky
179,Mar Del Plata,AR,-38.0023,-57.5575,55.99 F,51.00%,75.00%,20.0,broken clouds
180,Pak Phanang,TH,8.3511,100.202,82.08 F,81.00%,69.00%,4.7,broken clouds
181,Sangar,RU,63.9242,127.4739,27.79 F,83.00%,13.00%,6.22,few clouds
182,Bonavista,CA,48.6499,-53.1147,60.12 F,87.00%,91.00%,10.27,overcast clouds
183,Grand-Lahou,CI,5.1367,-5.0242,77.83 F,87.00%,97.00%,5.91,overcast clouds
184,Pereira Barreto,BR,-20.6383,-51.1092,96.33 F,27.00%,24.00%,11.16,few clouds
185,Den Chai,TH,17.9837,100.0522,74.79 F,96.00%,87.00%,0.63,overcast clouds
186,Matara,LK,5.9485,80.5353,78.49 F,88.00%,26.00%,7.65,scattered clouds
187,Ginir,ET,7.1333,40.7,63.77 F,71.00%,93.00%,2.84,light rain
188,Raudeberg,NO,61.9875,5.1352,54.95 F,55.00%,100.00%,8.01,overcast clouds
189,Nyurba,RU,63.2842,118.3319,27.61 F,77.00%,77.00%,4.34,broken clouds
190,Bairiki,KI,1.3292,172.9752,80.60 F,74.00%,20.00%,9.22,few clouds
191,Mfou,CM,3.7159,11.6427,82.26 F,65.00%,40.00%,0.0,moderate rain
192,Maceio,BR,-9.6658,-35.7353,85.44 F,70.00%,75.00%,14.97,broken clouds
193,Severo-Kurilsk,RU,50.6789,156.125,47.61 F,82.00%,72.00%,40.31,broken clouds
194,Nesna,NO,66.1967,13.0213,57.72 F,75.00%,100.00%,25.84,moderate rain
195,Comodoro Rivadavia,AR,-45.8667,-67.5,62.46 F,27.00%,20.00%,20.71,few clouds
196,Mago,RU,53.2514,140.1822,34.27 F,94.00%,96.00%,4.14,overcast clouds
197,Camocim,BR,-2.9022,-40.8411,89.64 F,55.00%,8.00%,22.55,clear sky
198,Sinnamary,GF,5.3833,-52.95,85.73 F,66.00%,11.00%,8.37,few clouds
199,Nikolayevsk-Na-Amure,RU,53.1406,140.73,34.59 F,97.00%,99.00%,5.1,overcast clouds
200,Pacific Grove,US,36.6177,-121.9166,90.81 F,55.00%,1.00%,3.0,clear sky
201,Kalispell,US,48.1958,-114.3129,69.49 F,52.00%,1.00%,4.0,clear sky
202,Kampot,KH,10.6167,104.1833,78.85 F,85.00%,93.00%,4.56,overcast clouds
203,Geraldton,AU,-28.7667,114.6,46.81 F,93.00%,0.00%,3.44,clear sky
204,Luderitz,NA,-26.6481,15.1594,61.77 F,48.00%,1.00%,27.87,clear sky
205,Sur,OM,22.5667,59.5289,83.34 F,78.00%,100.00%,17.92,overcast clouds
206,Bell Ville,AR,-32.6259,-62.6887,68.67 F,17.00%,32.00%,8.84,scattered clouds
207,Yashkul,RU,46.1711,45.3435,54.14 F,43.00%,99.00%,14.54,overcast clouds
208,Halifax,CA,44.6453,-63.5724,61.34 F,64.00%,51.00%,2.51,broken clouds
209,Gerash,IR,27.6652,54.1371,86.14 F,40.00%,42.00%,4.32,scattered clouds
210,Tiznit,MA,29.5833,-9.5,65.70 F,67.00%,17.00%,6.26,few clouds
211,Tarakan,ID,3.3,117.6333,79.25 F,83.00%,96.00%,6.2,overcast clouds
212,Wanning,CN,18.8003,110.3967,79.11 F,85.00%,29.00%,4.65,scattered clouds
213,Cherskiy,RU,68.75,161.3,17.49 F,97.00%,99.00%,3.31,light snow
214,Baijiantan,CN,45.6333,85.1833,49.46 F,38.00%,98.00%,5.61,overcast clouds
215,Baculin,PH,7.4525,126.5842,77.13 F,85.00%,99.00%,5.59,overcast clouds
216,Kavaratti,IN,10.5669,72.642,81.59 F,80.00%,100.00%,9.75,overcast clouds
217,Seoul,KR,37.5683,126.9778,71.04 F,82.00%,0.00%,3.44,clear sky
218,Lata,PT,40.1629,-8.3327,64.04 F,65.00%,2.00%,9.57,clear sky
219,San Jose,US,37.3394,-121.895,89.49 F,30.00%,20.00%,0.0,smoke
220,Henties Bay,NA,-22.116,14.2845,55.85 F,88.00%,3.00%,5.1,clear sky
221,Savalou,BJ,7.9281,1.9756,78.98 F,82.00%,82.00%,3.62,light rain
222,Gravdal,NO,68.1214,13.5031,55.29 F,58.00%,75.00%,20.71,light intensity shower rain
223,San Cristobal,VE,7.7669,-72.225,84.38 F,57.00%,97.00%,6.04,overcast clouds
224,Cheremushskiy,RU,61.2731,47.2636,44.08 F,85.00%,96.00%,1.57,overcast clouds
225,Linares,CL,-35.85,-71.6,63.21 F,37.00%,0.00%,13.98,clear sky
226,General Elizardo Aquino,PY,-24.4333,-56.7,79.23 F,80.00%,91.00%,8.9,overcast clouds
227,Kruisfontein,ZA,-34.0033,24.7314,54.88 F,75.00%,40.00%,6.46,scattered clouds
228,Sept-Iles,CA,50.2001,-66.3821,55.92 F,54.00%,40.00%,6.91,scattered clouds
229,Saint George,US,37.1041,-113.5841,86.47 F,24.00%,1.00%,0.0,clear sky
230,Ostersund,SE,63.1792,14.6357,53.62 F,83.00%,100.00%,4.0,overcast clouds
231,San Juan,AR,-31.5375,-68.5364,66.72 F,13.00%,0.00%,3.83,clear sky
232,Calabozo,VE,8.9242,-67.4293,87.10 F,57.00%,62.00%,6.06,broken clouds
233,Merauke,ID,-8.4667,140.3333,75.70 F,90.00%,87.00%,4.45,overcast clouds
234,Sitka,US,57.0531,-135.33,42.69 F,81.00%,75.00%,9.22,moderate rain
235,Coquimbo,CL,-29.9533,-71.3436,62.33 F,59.00%,0.00%,14.97,clear sky
236,Hofn,IS,64.2539,-15.2082,47.32 F,80.00%,100.00%,19.04,overcast clouds
237,Duki,PK,30.1541,68.5728,80.04 F,36.00%,19.00%,5.97,few clouds
238,Gra Liyia,GR,35.0167,25.6833,70.12 F,55.00%,2.00%,11.99,clear sky
239,Labuhan,ID,-6.8844,112.2051,78.49 F,73.00%,74.00%,11.18,broken clouds
240,Lewiston,US,44.1003,-70.2148,56.75 F,97.00%,90.00%,0.0,overcast clouds
241,Tolbazy,RU,54.0241,55.8825,41.76 F,62.00%,100.00%,5.99,overcast clouds
242,Biak,ID,-0.9131,122.8766,75.38 F,81.00%,83.00%,7.11,broken clouds
243,Todos Santos,MX,23.45,-110.2167,90.01 F,77.00%,99.00%,5.97,overcast clouds
244,Norman Wells,CA,65.282,-126.8329,35.64 F,93.00%,90.00%,23.02,mist
245,Novo Selo,MK,41.4139,22.8811,59.67 F,61.00%,72.00%,0.69,broken clouds
246,Chuy,UY,-33.6971,-53.4616,62.56 F,56.00%,94.00%,11.36,overcast clouds
247,Porto Walter,BR,-8.2686,-72.7439,97.25 F,33.00%,16.00%,5.12,few clouds
248,Clyde River,CA,70.4692,-68.5914,37.63 F,87.00%,90.00%,6.91,overcast clouds
249,Bridlington,GB,54.0831,-0.1919,57.38 F,73.00%,12.00%,17.67,few clouds
250,Abu Dhabi,AE,24.4667,54.3667,93.22 F,40.00%,0.00%,9.22,clear sky
251,Dikson,RU,73.5069,80.5464,34.48 F,98.00%,100.00%,23.98,light rain
252,Rio Branco,BR,-9.9747,-67.81,95.61 F,46.00%,75.00%,5.75,broken clouds
253,Itoman,JP,26.1247,127.6694,82.42 F,61.00%,20.00%,11.5,few clouds
254,Kasama,ZM,-10.2129,31.1808,69.76 F,63.00%,62.00%,4.43,broken clouds
255,Nicolas Bravo,MX,18.45,-88.9167,88.68 F,47.00%,56.00%,4.76,broken clouds
256,Ascope,PE,-7.7144,-79.1078,63.73 F,48.00%,39.00%,10.65,scattered clouds
257,Ust-Uda,RU,54.1742,103.0304,32.88 F,81.00%,100.00%,2.13,overcast clouds
258,Luganville,VU,-15.5333,167.1667,76.64 F,88.00%,29.00%,4.54,scattered clouds
259,Penzance,GB,50.1186,-5.5371,57.88 F,76.00%,42.00%,23.35,scattered clouds
260,Magadan,RU,59.5667,150.8,36.81 F,71.00%,100.00%,10.29,overcast clouds
261,La Ronge,CA,55.1001,-105.2842,61.02 F,41.00%,75.00%,4.61,broken clouds
262,Puerto Palomas,MX,31.7667,-107.6167,74.53 F,34.00%,31.00%,14.38,scattered clouds
263,Havre-Saint-Pierre,CA,50.2334,-63.5986,53.96 F,58.00%,90.00%,6.91,overcast clouds
264,Olafsvik,IS,64.8945,-23.7142,42.03 F,90.00%,100.00%,32.93,overcast clouds
265,Eha Amufu,NG,6.6592,7.7596,77.04 F,91.00%,73.00%,4.14,broken clouds
266,Itarema,BR,-2.9248,-39.9167,85.93 F,62.00%,1.00%,21.36,clear sky
267,Alakurtti,RU,66.9672,30.3491,45.63 F,95.00%,41.00%,5.03,scattered clouds
268,Marsh Harbour,BS,26.5412,-77.0636,81.18 F,60.00%,2.00%,10.94,clear sky
269,Edd,ER,13.9297,41.6925,86.88 F,75.00%,84.00%,7.05,broken clouds
270,Mitsamiouli,KM,-11.3847,43.2844,79.09 F,69.00%,20.00%,13.8,few clouds
271,Pathein,MM,16.7833,94.7333,78.01 F,91.00%,100.00%,2.19,overcast clouds
272,Kargil,IN,34.5667,76.1,49.48 F,47.00%,0.00%,7.87,clear sky
273,Veseli Nad Luznici,CZ,49.1843,14.6973,59.47 F,76.00%,26.00%,4.32,scattered clouds
274,Sabang,ID,5.8933,95.3214,81.81 F,74.00%,38.00%,9.71,scattered clouds
275,Port Augusta,AU,-32.5,137.7667,57.34 F,87.00%,0.00%,7.94,clear sky
276,Baykit,RU,61.67,96.37,35.02 F,93.00%,99.00%,1.41,overcast clouds
277,Iranduba,BR,-3.2847,-60.1861,88.12 F,42.00%,42.00%,4.61,light rain
278,Canoinhas,BR,-26.1772,-50.39,63.09 F,99.00%,100.00%,3.13,light rain
279,Chakulia,IN,22.4833,86.7167,78.53 F,86.00%,20.00%,4.07,moderate rain
280,Kantang,TH,7.4054,99.5156,78.46 F,89.00%,97.00%,2.1,light rain
281,Anchorage,US,61.2181,-149.9003,33.67 F,90.00%,75.00%,0.0,broken clouds
282,Hammerfest,NO,70.6634,23.6821,52.25 F,62.00%,0.00%,17.27,clear sky
283,Paita,PE,-5.0892,-81.1144,75.76 F,68.00%,26.00%,15.41,scattered clouds
284,Kramat,ID,-8.1311,113.4499,73.42 F,89.00%,86.00%,1.14,overcast clouds
285,Pangani,TZ,-5.4333,38.9667,74.79 F,79.00%,85.00%,7.96,overcast clouds
286,Anadyr,RU,64.75,177.4833,36.10 F,93.00%,40.00%,13.0,fog
287,Souillac,MU,-20.5167,57.5167,73.36 F,88.00%,75.00%,16.11,broken clouds
288,Grindavik,IS,63.8424,-22.4338,48.15 F,81.00%,0.00%,24.16,clear sky
289,Iwanai,JP,42.9744,140.5089,66.29 F,78.00%,100.00%,9.73,overcast clouds
290,Srednekolymsk,RU,67.45,153.6833,24.17 F,92.00%,99.00%,3.49,overcast clouds
291,Karpogory,RU,64.0019,44.4451,42.96 F,91.00%,100.00%,4.23,overcast clouds
292,Codrington,AU,-38.2667,141.9667,49.23 F,91.00%,58.00%,13.29,broken clouds
293,Banjar,ID,-8.19,114.9675,76.91 F,89.00%,56.00%,6.8,broken clouds
294,Grand Gaube,MU,-20.0064,57.6608,73.38 F,74.00%,10.00%,10.0,clear sky
295,Manta,EC,-0.95,-80.7333,76.78 F,78.00%,75.00%,9.22,broken clouds
296,Ati,TD,13.2154,18.3353,93.51 F,26.00%,10.00%,6.8,clear sky
297,Hueytown,US,33.4512,-86.9967,77.72 F,89.00%,90.00%,6.91,overcast clouds
298,Shangzhi,CN,45.2167,127.9667,43.20 F,89.00%,77.00%,4.68,broken clouds
299,Airai,TL,-8.9266,125.4092,59.41 F,81.00%,46.00%,1.48,scattered clouds
300,Capitao Poco,BR,-1.7464,-47.0594,92.84 F,39.00%,94.00%,7.11,overcast clouds
301,Borba,BR,-4.3878,-59.5939,94.89 F,41.00%,98.00%,4.25,overcast clouds
302,Ponta Do Sol,PT,32.6667,-17.1,79.00 F,72.00%,54.00%,3.18,broken clouds
303,Brawley,US,32.9787,-115.5303,93.18 F,18.00%,1.00%,5.75,clear sky
304,Lompoc,US,34.6391,-120.4579,92.21 F,68.00%,1.00%,3.44,clear sky
305,Shambu,ET,9.5667,37.1,51.73 F,90.00%,65.00%,1.61,light rain
306,Natal,BR,-5.795,-35.2094,88.45 F,58.00%,20.00%,20.71,few clouds
307,Horodok,UA,49.1637,26.5839,57.22 F,49.00%,51.00%,11.01,broken clouds
308,Mugango,TZ,-1.6833,33.7,73.58 F,69.00%,98.00%,8.66,overcast clouds
309,Kenai,US,60.5544,-151.2583,40.14 F,88.00%,1.00%,0.0,clear sky
310,Brandon,US,27.9378,-82.2859,89.85 F,59.00%,40.00%,3.0,scattered clouds
311,Balaka,MW,-14.9793,34.9558,85.86 F,32.00%,69.00%,5.37,broken clouds
312,Arroyo,ES,41.6096,-4.7969,59.04 F,51.00%,20.00%,16.11,few clouds
313,Los Llanos De Aridane,ES,28.6585,-17.9182,71.35 F,73.00%,40.00%,13.8,scattered clouds
314,Sayyan,YE,15.1718,44.3244,62.65 F,51.00%,75.00%,2.44,broken clouds
315,Humberto De Campos,BR,-2.5983,-43.4611,89.24 F,52.00%,72.00%,12.48,broken clouds
316,Zhangye,CN,38.9342,100.4517,48.27 F,34.00%,90.00%,4.32,overcast clouds
317,Rawson,AR,-43.3002,-65.1023,59.68 F,31.00%,4.00%,11.61,clear sky
318,Gizo,SB,-8.103,156.8419,81.70 F,77.00%,71.00%,6.42,broken clouds
319,Miyako,JP,39.6367,141.9525,60.62 F,89.00%,10.00%,8.68,clear sky
320,Yulara,AU,-25.2406,130.9889,57.04 F,35.00%,0.00%,8.05,clear sky
321,Yuli,NG,9.6989,10.2744,81.77 F,59.00%,1.00%,3.76,clear sky
322,Buraydah,SA,26.326,43.975,91.85 F,11.00%,5.00%,9.57,clear sky
323,Vila Velha,BR,-20.3297,-40.2925,85.95 F,54.00%,75.00%,18.41,broken clouds
324,Camacha,PT,33.0833,-16.3333,75.52 F,78.00%,75.00%,11.5,broken clouds
325,Areia Branca,BR,-4.9561,-37.1369,93.40 F,64.00%,35.00%,19.91,scattered clouds
326,Hokitika,NZ,-42.7167,170.9667,51.21 F,91.00%,100.00%,6.24,overcast clouds
327,Kapoeta,SS,4.7717,33.5903,78.19 F,66.00%,63.00%,7.72,broken clouds
328,Khatanga,RU,71.9667,102.5,17.04 F,95.00%,90.00%,10.29,overcast clouds
329,Cayenne,GF,4.9333,-52.3333,89.64 F,74.00%,75.00%,5.01,broken clouds
330,Port-Cartier,CA,50.0334,-66.8654,55.62 F,75.00%,100.00%,3.89,overcast clouds
331,Hasaki,JP,35.7333,140.8333,64.29 F,82.00%,0.00%,5.99,clear sky
332,Mecca,SA,21.4267,39.8261,87.64 F,41.00%,100.00%,5.84,overcast clouds
333,Abalak,RU,58.1286,68.5944,31.26 F,87.00%,92.00%,9.69,overcast clouds
334,Mandalgovi,MN,45.7625,106.2708,34.86 F,55.00%,49.00%,3.2,scattered clouds
335,Coro,VE,11.4045,-69.6734,88.59 F,63.00%,42.00%,20.13,scattered clouds
336,Viedma,AR,-40.8135,-62.9967,61.39 F,28.00%,1.00%,16.2,clear sky
337,Nikolsk,RU,53.7189,46.0712,44.91 F,86.00%,100.00%,4.34,overcast clouds
338,Lipin Bor,RU,60.2622,37.9763,41.81 F,85.00%,51.00%,7.05,broken clouds
339,Port Hawkesbury,CA,45.6169,-61.3485,60.91 F,70.00%,40.00%,5.01,scattered clouds
340,Lavrentiya,RU,65.5833,-171.0,23.23 F,73.00%,84.00%,3.98,broken clouds
341,Smithers,CA,54.7804,-127.1743,39.52 F,75.00%,40.00%,5.75,scattered clouds
342,Nanortalik,GL,60.1432,-45.2371,40.91 F,71.00%,0.00%,3.33,clear sky
343,Jatai,BR,-17.8814,-51.7144,94.55 F,24.00%,36.00%,10.18,scattered clouds
344,Barra Patuca,HN,15.8,-84.2833,84.29 F,70.00%,42.00%,6.31,scattered clouds
345,Tabasalu,EE,59.4303,24.5331,54.00 F,82.00%,0.00%,11.5,clear sky
346,Leningradskiy,RU,69.3833,178.4167,15.46 F,84.00%,76.00%,5.03,broken clouds
347,Balikpapan,ID,-1.2675,116.8289,76.46 F,88.00%,82.00%,7.7,broken clouds
348,Ipixuna,BR,-1.7625,-48.8043,85.95 F,42.00%,83.00%,5.1,broken clouds
349,Port Said,EG,31.2565,32.2841,75.18 F,78.00%,20.00%,12.66,few clouds
350,Saint-Joseph,RE,-21.3667,55.6167,71.98 F,80.00%,25.00%,12.06,scattered clouds
351,Vao,NC,-22.6667,167.4833,71.91 F,89.00%,1.00%,3.18,clear sky
352,Dekar,BW,-21.5333,21.9333,69.06 F,10.00%,0.00%,9.01,clear sky
353,Klyuchi,RU,52.2667,79.1667,38.39 F,53.00%,100.00%,5.32,overcast clouds
354,Adrar,MR,20.5022,-10.0711,99.46 F,9.00%,8.00%,2.53,clear sky
355,Manokwari,ID,-0.8667,134.0833,79.16 F,74.00%,92.00%,1.95,overcast clouds
356,Kayerkan,RU,69.3497,87.7602,21.02 F,96.00%,94.00%,3.67,overcast clouds
357,Riverton,US,40.5219,-111.9391,75.43 F,37.00%,1.00%,5.01,clear sky
358,Westport,US,41.1415,-73.3579,80.10 F,63.00%,40.00%,1.01,scattered clouds
359,Cabra,ES,37.4725,-4.4421,67.30 F,89.00%,98.00%,5.01,overcast clouds
360,Tchibanga,GA,-2.85,11.0333,74.48 F,82.00%,88.00%,6.38,light rain
361,Banda Aceh,ID,5.5577,95.3222,79.30 F,81.00%,64.00%,7.34,broken clouds
362,Shelopugino,RU,51.6514,117.5599,30.58 F,73.00%,29.00%,2.21,scattered clouds
363,Ambilobe,MG,-13.2,49.05,72.19 F,76.00%,11.00%,3.78,few clouds
364,Hakkari,TR,37.5833,44.1667,56.95 F,41.00%,21.00%,6.08,few clouds
365,Pattaya,TH,12.9333,100.8833,83.32 F,84.00%,100.00%,1.79,overcast clouds
366,Isangel,VU,-19.55,169.2667,74.37 F,89.00%,22.00%,4.72,few clouds
367,Laguna,US,38.421,-121.4238,84.04 F,37.00%,1.00%,4.61,clear sky
368,Shangqiu,CN,34.45,115.65,73.63 F,93.00%,96.00%,5.93,light rain
369,Bereda,ES,43.2686,-7.5406,56.95 F,75.00%,40.00%,3.29,scattered clouds
370,Aconibe,GQ,1.2968,10.9369,69.58 F,95.00%,66.00%,2.08,moderate rain
371,Olinda,BR,-8.0089,-34.8553,83.93 F,65.00%,40.00%,6.91,scattered clouds
372,Waipawa,NZ,-41.4122,175.5153,51.03 F,91.00%,100.00%,2.62,moderate rain
373,Bhindar,IN,24.5,74.1833,77.86 F,78.00%,41.00%,4.27,scattered clouds
374,Hermosillo,MX,29.0667,-110.9667,93.85 F,30.00%,4.00%,1.01,clear sky
375,Mount Isa,AU,-20.7333,139.5,74.97 F,25.00%,7.00%,10.36,clear sky
376,Bathsheba,BB,13.2167,-59.5167,90.21 F,58.00%,20.00%,25.32,few clouds
377,Araouane,ML,18.9048,-3.5265,100.85 F,9.00%,68.00%,4.0,broken clouds
378,Saint-Gaudens,FR,43.0833,0.6667,55.51 F,98.00%,100.00%,6.31,overcast clouds
379,Kenora,CA,49.8167,-94.4337,60.19 F,82.00%,75.00%,0.0,mist
380,Kununurra,AU,-15.7667,128.7333,75.18 F,73.00%,38.00%,0.0,scattered clouds
381,Bonthe,SL,7.5264,-12.505,79.00 F,83.00%,84.00%,5.75,moderate rain
382,Keti Bandar,PK,24.1447,67.4497,82.60 F,84.00%,10.00%,15.97,clear sky
383,Formosa,AR,-26.1775,-58.1781,67.98 F,88.00%,90.00%,14.97,overcast clouds
384,Tahe,CN,52.3333,124.7333,29.52 F,80.00%,0.00%,3.33,clear sky
385,Verkhnevilyuysk,RU,63.4453,120.3167,27.32 F,81.00%,49.00%,3.38,scattered clouds
386,Pevek,RU,69.7008,170.3133,22.68 F,91.00%,99.00%,9.46,overcast clouds
387,Uzhur,RU,55.3036,89.8339,29.86 F,76.00%,88.00%,2.64,overcast clouds
388,Wainwright,CA,52.839,-110.8572,58.91 F,27.00%,31.00%,7.34,scattered clouds
389,Gigmoto,PH,13.7796,124.39,79.88 F,88.00%,100.00%,9.04,light rain
390,Shelburne,CA,44.0787,-80.2041,65.75 F,94.00%,100.00%,1.81,overcast clouds
391,Weiser,US,44.251,-116.9693,69.31 F,38.00%,42.00%,3.33,scattered clouds
392,Bud,US,39.447,-86.1758,74.03 F,88.00%,100.00%,9.24,overcast clouds
393,Huarmey,PE,-10.0681,-78.1522,68.52 F,72.00%,87.00%,11.65,overcast clouds
394,Majene,ID,-3.5403,118.9707,77.04 F,88.00%,98.00%,3.31,overcast clouds
395,Sibolga,ID,1.7427,98.7792,77.43 F,79.00%,95.00%,1.86,overcast clouds
396,Rabo De Peixe,PT,37.8,-25.5833,75.27 F,87.00%,40.00%,4.61,scattered clouds
397,Kathu,TH,7.9178,98.3332,86.70 F,89.00%,87.00%,9.37,overcast clouds
398,Cancun,MX,21.1743,-86.8466,86.05 F,70.00%,66.00%,8.93,broken clouds
399,Puerto Escondido,MX,15.85,-97.0667,86.70 F,66.00%,48.00%,6.6,scattered clouds
400,Orocue,CO,4.7912,-71.3354,90.46 F,54.00%,77.00%,9.1,broken clouds
401,Belaya Gora,RU,68.5333,146.4167,19.63 F,86.00%,62.00%,3.31,broken clouds
402,Georgetown,MY,5.4112,100.3354,82.89 F,84.00%,20.00%,0.0,few clouds
403,Fayaoue,NC,-20.65,166.5333,76.21 F,84.00%,18.00%,8.37,few clouds
404,Les Cayes,HT,18.2,-73.75,80.28 F,79.00%,100.00%,11.36,overcast clouds
405,Chauk,MM,20.8833,94.8167,78.51 F,86.00%,24.00%,7.11,few clouds
406,Vardo,NO,70.3705,31.1107,50.20 F,71.00%,0.00%,17.27,clear sky
407,Zeya,RU,53.75,127.2667,31.32 F,76.00%,1.00%,5.53,clear sky
408,Roald,NO,62.5833,6.1333,56.08 F,58.00%,0.00%,3.44,clear sky
409,Bhatkal,IN,13.9667,74.5667,79.27 F,90.00%,73.00%,4.79,heavy intensity rain
410,Fairbanks,US,64.8378,-147.7164,34.61 F,95.00%,90.00%,3.44,light snow
411,Zyryanka,RU,65.75,150.85,23.43 F,97.00%,63.00%,7.63,broken clouds
412,Boissevain,CA,49.2306,-100.0559,70.30 F,24.00%,78.00%,13.56,broken clouds
413,Jacareacanga,BR,-6.2222,-57.7528,97.83 F,31.00%,99.00%,4.63,overcast clouds
414,Tessalit,ML,20.1986,1.0114,93.96 F,10.00%,48.00%,12.86,scattered clouds
415,Porto Novo,BJ,6.4965,2.6036,84.02 F,81.00%,94.00%,7.34,overcast clouds
416,Kitimat,CA,54.0524,-128.6534,46.90 F,57.00%,100.00%,1.99,light rain
417,Saint-Louis,SN,16.3333,-15.0,101.84 F,27.00%,55.00%,1.41,broken clouds
418,Bermeo,ES,43.4209,-2.7215,62.80 F,75.00%,98.00%,11.77,overcast clouds
419,Picos,BR,-7.0769,-41.4669,103.96 F,15.00%,8.00%,6.2,clear sky
420,Martin,US,27.0837,-80.4164,87.96 F,63.00%,92.00%,11.79,overcast clouds
421,San Pascual,PH,13.7975,121.0342,78.62 F,90.00%,98.00%,4.76,overcast clouds
422,Zharkent,KZ,44.1628,80.0,46.33 F,39.00%,56.00%,3.24,broken clouds
423,Cidreira,BR,-30.1811,-50.2056,66.04 F,88.00%,100.00%,11.77,light rain
424,Almeirim,BR,-1.5233,-52.5817,85.89 F,62.00%,97.00%,5.91,overcast clouds
425,Sanmenxia,CN,34.7747,111.1814,70.84 F,96.00%,80.00%,3.91,light rain
426,Nargana,PA,9.4428,-78.5906,82.40 F,80.00%,66.00%,9.1,broken clouds
427,Kondinskoye,RU,59.6481,67.41,28.35 F,92.00%,55.00%,8.34,broken clouds
428,Stornoway,GB,58.2093,-6.3865,53.92 F,87.00%,90.00%,14.97,overcast clouds
429,San,ML,13.3034,-4.8956,92.52 F,30.00%,18.00%,3.44,few clouds
430,Saurimo,AO,-9.6608,20.3916,73.04 F,66.00%,71.00%,4.14,broken clouds
431,Pedasi,PA,7.5333,-80.0333,83.32 F,70.00%,87.00%,1.81,overcast clouds
432,Ancud,CL,-41.8697,-73.8203,53.13 F,65.00%,53.00%,12.12,broken clouds
433,Longyearbyen,SJ,78.2186,15.6401,36.43 F,98.00%,100.00%,5.7,light rain
434,Kalabo,ZM,-14.97,22.6814,79.65 F,43.00%,99.00%,7.09,overcast clouds
435,Dudinka,RU,69.4058,86.1778,14.02 F,94.00%,82.00%,2.19,broken clouds
436,Palmer,US,42.1584,-72.3287,74.64 F,63.00%,90.00%,0.0,overcast clouds
437,Wonthaggi,AU,-38.6044,145.5913,58.19 F,90.00%,91.00%,17.31,overcast clouds
438,College,US,64.8569,-147.8028,34.59 F,96.00%,90.00%,3.44,light snow
439,Moba,CN,33.2288,105.0179,46.53 F,86.00%,100.00%,6.55,light rain
440,Cuamba,MZ,-14.8031,36.5372,86.86 F,27.00%,35.00%,5.77,scattered clouds
441,Vila,PT,42.0304,-8.1588,53.33 F,69.00%,53.00%,5.14,broken clouds
442,Stony Plain,CA,53.5334,-114.0021,57.49 F,57.00%,20.00%,12.66,few clouds
443,Tupiza,BO,-21.45,-65.7167,75.88 F,3.00%,0.00%,20.89,clear sky
444,Gushikawa,JP,26.3544,127.8686,81.63 F,65.00%,20.00%,12.66,few clouds
445,Kachiry,KZ,53.0675,76.1036,37.49 F,65.00%,100.00%,5.86,overcast clouds
446,Trairi,BR,-3.2778,-39.2689,85.75 F,61.00%,7.00%,16.78,clear sky
447,Sorland,NO,67.667,12.6934,55.47 F,83.00%,100.00%,24.54,light rain
448,Paraguari,PY,-25.6208,-57.1472,74.86 F,91.00%,100.00%,7.25,overcast clouds
449,Tucuma,BR,-0.1833,-50.05,88.36 F,56.00%,75.00%,10.98,broken clouds
450,Whitehorse,CA,60.7161,-135.0538,35.10 F,83.00%,90.00%,0.0,overcast clouds
451,Ballitoville,ZA,-29.539,31.2144,59.16 F,82.00%,90.00%,3.44,light rain
452,Mwinilunga,ZM,-11.7358,24.4293,67.39 F,66.00%,74.00%,1.79,broken clouds
453,Barvinkove,UA,48.9097,37.0205,49.01 F,46.00%,3.00%,8.52,clear sky
454,Holland,US,42.7875,-86.1089,72.41 F,65.00%,90.00%,4.61,overcast clouds
455,Ibra,OM,22.6906,58.5334,78.60 F,80.00%,100.00%,18.07,overcast clouds
456,Zunyi,CN,27.6867,106.9072,68.79 F,78.00%,12.00%,4.92,few clouds
457,Beringovskiy,RU,63.05,179.3167,38.03 F,99.00%,100.00%,1.99,overcast clouds
458,Sechura,PE,-5.5569,-80.8222,77.31 F,54.00%,25.00%,13.56,scattered clouds
459,Richards Bay,ZA,-28.783,32.0377,60.42 F,84.00%,100.00%,4.94,light rain
460,Kapit,MY,2.0167,112.9333,73.80 F,99.00%,100.00%,0.38,overcast clouds
461,Kargasok,RU,59.0556,80.8572,32.72 F,97.00%,100.00%,7.81,overcast clouds
462,Evensk,RU,61.95,159.2333,40.50 F,61.00%,100.00%,20.02,overcast clouds
463,Beloha,MG,-25.1667,45.05,72.68 F,80.00%,9.00%,4.63,clear sky
464,West Wendover,US,40.7391,-114.0733,60.01 F,25.00%,1.00%,3.44,clear sky
465,Moyale,KE,3.5167,39.0584,77.52 F,44.00%,62.00%,8.55,broken clouds
466,Carutapera,BR,-1.195,-46.02,87.76 F,56.00%,49.00%,12.59,scattered clouds
467,Kattivakkam,IN,13.2167,80.3167,82.49 F,77.00%,9.00%,7.34,clear sky
468,Salgado,BR,-11.0319,-37.475,83.10 F,49.00%,15.00%,12.71,few clouds
469,Taksimo,RU,56.3444,114.8794,29.82 F,84.00%,31.00%,3.02,scattered clouds
470,Jalu,LY,29.0331,21.5482,77.14 F,38.00%,0.00%,8.88,clear sky
471,Le Passage,FR,44.2014,0.6028,59.54 F,94.00%,90.00%,6.91,overcast clouds
472,Rorvik,NO,64.8621,11.2373,59.11 F,67.00%,75.00%,19.57,light rain
473,Shitanjing,CN,39.2342,106.3439,54.43 F,34.00%,100.00%,4.05,light rain
474,Mount Gambier,AU,-37.8333,140.7667,49.91 F,93.00%,75.00%,20.71,broken clouds
475,Zavoronezhskoye,RU,52.8801,40.5526,45.55 F,70.00%,32.00%,6.33,scattered clouds
476,Ciudad Bolivar,VE,8.1222,-63.5497,87.75 F,55.00%,97.00%,9.44,overcast clouds
477,Saru Dornei,RO,47.2833,25.35,42.40 F,72.00%,19.00%,3.33,few clouds
478,Nouakchott,MR,18.0858,-15.9785,85.93 F,70.00%,41.00%,14.05,scattered clouds
479,Neiafu,TO,-18.65,-173.9833,75.88 F,94.00%,40.00%,9.22,light intensity shower rain
480,General Roca,AR,-39.0333,-67.5833,63.00 F,17.00%,0.00%,15.05,clear sky
481,Nioki,CD,-2.7167,17.6833,77.79 F,79.00%,99.00%,3.04,overcast clouds
482,Yar-Sale,RU,66.8333,70.8333,30.09 F,77.00%,86.00%,6.2,overcast clouds
483,Tagusao,PH,9.1924,117.8141,78.39 F,89.00%,100.00%,8.61,overcast clouds
484,Yantzaza,EC,-3.8278,-78.7594,80.20 F,75.00%,38.00%,3.38,moderate rain
485,Axim,GH,4.8699,-2.2405,78.64 F,85.00%,88.00%,8.01,overcast clouds
486,Baruun-Urt,MN,46.6806,113.2792,33.58 F,89.00%,10.00%,4.12,clear sky
487,Heinola,FI,61.2056,26.0381,51.01 F,85.00%,99.00%,12.53,overcast clouds
488,Susehri,TR,40.1644,38.0867,51.03 F,87.00%,91.00%,4.68,overcast clouds
489,Leh,IN,34.1667,77.5833,52.75 F,34.00%,22.00%,6.13,few clouds
490,Shimoda,JP,34.6667,138.95,66.11 F,82.00%,28.00%,1.63,scattered clouds
491,Avarua,CK,-21.2078,-159.775,73.45 F,78.00%,75.00%,4.61,light rain
492,Mao,ES,39.8885,4.2658,75.76 F,83.00%,40.00%,12.66,scattered clouds
493,Suhut,TR,38.5311,30.5458,54.19 F,50.00%,0.00%,5.21,clear sky
494,Dustlik,UZ,40.5247,68.0358,49.51 F,35.00%,28.00%,5.95,scattered clouds
495,Fuxin,CN,42.0156,121.6589,54.30 F,58.00%,100.00%,12.1,light rain
496,Skibbereen,IE,51.55,-9.2667,53.40 F,84.00%,82.00%,19.13,broken clouds
497,Hamilton,US,39.1834,-84.5333,72.12 F,90.00%,90.00%,8.05,mist
498,Esperance,AU,-33.8667,121.9,42.64 F,69.00%,12.00%,8.12,few clouds
499,Chicama,PE,-7.8447,-79.1469,64.94 F,57.00%,43.00%,11.52,scattered clouds
500,Innisfail,AU,-17.5333,146.0333,71.53 F,90.00%,38.00%,2.51,scattered clouds
501,Tulun,RU,54.5611,100.5792,31.26 F,93.00%,77.00%,2.42,broken clouds
502,Ryotsu,JP,38.0833,138.4333,68.97 F,72.00%,1.00%,8.1,clear sky
503,Aykhal,RU,66.0,111.5,27.32 F,67.00%,100.00%,5.19,overcast clouds
504,Puerto Rico,AR,-26.796,-55.024,75.40 F,90.00%,100.00%,0.4,light rain
505,Jiexiu,CN,37.0244,111.9125,63.95 F,91.00%,100.00%,5.64,moderate rain
506,Linfen,CN,36.0889,111.5189,71.20 F,86.00%,100.00%,2.77,light rain
507,Yerbogachen,RU,61.2767,108.0108,33.04 F,86.00%,100.00%,4.63,overcast clouds
508,Saint-Pierre,RE,-21.3393,55.4781,73.08 F,73.00%,90.00%,0.0,overcast clouds
509,Burnie,AU,-41.0667,145.9167,53.92 F,97.00%,73.00%,3.33,light rain
510,Saraipali,IN,21.3333,83.0,76.66 F,88.00%,48.00%,4.74,scattered clouds
511,Alice Springs,AU,-23.7,133.8833,56.75 F,41.00%,0.00%,0.0,clear sky
512,Lastoursville,GA,-0.8143,12.7287,73.51 F,96.00%,68.00%,1.7,broken clouds
513,Mehamn,NO,71.0357,27.8492,50.18 F,74.00%,96.00%,30.89,overcast clouds
514,Qasigiannguit,GL,68.8193,-51.1922,25.41 F,71.00%,72.00%,1.63,broken clouds
515,Kavieng,PG,-2.5744,150.7967,80.92 F,74.00%,28.00%,4.79,scattered clouds
516,Iberia,US,29.9502,-91.7507,88.99 F,74.00%,75.00%,3.44,broken clouds
517,Sistranda,NO,63.7256,8.834,63.90 F,87.00%,100.00%,22.03,light rain
518,Valentin Gomez Farias,MX,28.2167,-106.5833,68.97 F,60.00%,100.00%,14.27,overcast clouds
519,Fomboni,KM,-12.28,43.7425,76.60 F,81.00%,18.00%,13.0,few clouds
520,Ostrovnoy,RU,68.0531,39.5131,45.41 F,87.00%,43.00%,20.02,scattered clouds
521,Muli,MV,2.9167,73.5667,82.92 F,77.00%,7.00%,16.67,clear sky
522,Praia Da Vitoria,PT,38.7333,-27.0667,74.75 F,88.00%,40.00%,8.88,scattered clouds
523,Oakdale,US,44.963,-92.9649,69.15 F,81.00%,75.00%,6.91,broken clouds
524,Bac Lieu,VN,9.285,105.7244,78.19 F,88.00%,100.00%,5.64,overcast clouds
525,Penne,IT,42.4538,13.9299,70.77 F,79.00%,68.00%,1.48,broken clouds
526,Purranque,CL,-40.9167,-73.1667,51.13 F,57.00%,79.00%,5.37,broken clouds
527,San Joaquin,US,37.9333,-121.3011,82.96 F,18.00%,0.00%,2.28,clear sky
528,Ndungu,TZ,-4.3667,38.05,72.81 F,69.00%,87.00%,5.61,overcast clouds
529,Giporlos,PH,11.12,125.4494,77.56 F,94.00%,100.00%,9.04,overcast clouds
530,Trincomalee,LK,8.5711,81.2335,79.83 F,84.00%,68.00%,9.01,heavy intensity rain
531,Namatanai,PG,-3.6667,152.4333,79.09 F,79.00%,22.00%,5.14,few clouds
532,Kielce,PL,50.8703,20.6275,57.79 F,1.00%,35.00%,10.13,scattered clouds
533,Atmakur,IN,15.8833,78.5833,77.32 F,80.00%,43.00%,4.81,scattered clouds
534,Pitimbu,BR,-7.4706,-34.8086,86.59 F,65.00%,28.00%,14.58,scattered clouds
535,Aguas Belas,BR,-9.1114,-37.1231,91.71 F,30.00%,2.00%,17.43,clear sky
536,Abonnema,NG,4.7084,6.7931,78.21 F,86.00%,89.00%,5.91,overcast clouds
537,Muravlenko,RU,63.7898,74.523,28.47 F,82.00%,95.00%,6.78,overcast clouds
538,Zlatna,RO,46.1167,23.2167,50.09 F,54.00%,1.00%,2.73,clear sky
539,Vallenar,CL,-28.5708,-70.7581,79.14 F,17.00%,0.00%,13.8,clear sky
540,Ingleside,US,27.8778,-97.2117,87.98 F,78.00%,1.00%,8.05,clear sky
541,Osoyoos,CA,49.0331,-119.4524,68.00 F,55.00%,96.00%,1.14,overcast clouds
542,Gamba,GA,-2.65,10.0,76.14 F,82.00%,78.00%,7.61,broken clouds
543,Manali,IN,13.1667,80.2667,82.49 F,77.00%,9.00%,7.11,clear sky
544,Ovre Ardal,NO,61.3167,7.8,46.27 F,95.00%,100.00%,6.33,light rain
545,Carson City,US,39.1638,-119.7674,74.41 F,16.00%,1.00%,0.0,clear sky
546,Morros,BR,-9.4467,-46.3003,100.56 F,15.00%,14.00%,9.71,few clouds
547,Damascus,SY,33.5102,36.2913,70.56 F,44.00%,0.00%,12.19,clear sky
548,Marawi,PH,7.9986,124.2928,67.64 F,99.00%,100.00%,0.6,overcast clouds
549,Ust-Tsilma,RU,65.441,52.1498,39.02 F,94.00%,100.00%,4.32,overcast clouds
550,Conway,US,35.0887,-92.4421,81.63 F,73.00%,20.00%,9.22,few clouds
551,Kuusamo,FI,65.9667,29.1833,48.24 F,71.00%,0.00%,13.8,clear sky
552,Mudgee,AU,-32.5943,149.5871,51.85 F,100.00%,40.00%,0.0,scattered clouds
553,Kiama,AU,-34.6833,150.8667,63.00 F,79.00%,87.00%,5.88,overcast clouds
554,Uvinza,TZ,-5.1036,30.3911,73.72 F,66.00%,98.00%,4.16,overcast clouds
555,Atar,MR,20.5169,-13.0499,103.46 F,5.00%,35.00%,9.37,scattered clouds
556,Umm Kaddadah,SD,13.6017,26.6876,92.03 F,17.00%,81.00%,11.14,broken clouds
557,Alofi,NU,-19.0595,-169.9187,73.29 F,94.00%,93.00%,13.8,light rain
558,Chikwawa,MW,-16.0335,34.8009,90.90 F,26.00%,36.00%,2.37,scattered clouds
559,Nanakuli,US,21.3906,-158.1547,78.75 F,88.00%,90.00%,3.44,light intensity drizzle
560,Fort Wellington,GY,6.4,-57.6,81.84 F,78.00%,100.00%,8.21,overcast clouds
561,Moron,AR,-34.6534,-58.6198,62.80 F,35.00%,3.00%,5.99,clear sky
562,Hovd,MN,48.0056,91.6419,33.60 F,35.00%,2.00%,3.62,clear sky
563,Mercedes,AR,-34.6515,-59.4307,62.85 F,38.00%,1.00%,12.66,clear sky
564,Praia,CV,14.9215,-23.5087,88.34 F,58.00%,20.00%,16.11,few clouds
565,Korla,CN,41.7597,86.1469,51.89 F,32.00%,16.00%,4.41,few clouds
566,Imbituba,BR,-28.24,-48.6703,73.29 F,76.00%,100.00%,3.02,light rain
567,Panorama,GR,40.5878,23.0315,62.94 F,65.00%,0.00%,1.01,clear sky
568,Toropets,RU,56.4978,31.6353,45.90 F,86.00%,100.00%,7.81,light rain
569,Mongomo,GQ,1.6274,11.3135,69.62 F,97.00%,65.00%,2.73,light rain
570,Colares,PT,38.7992,-9.4469,66.97 F,58.00%,20.00%,8.99,few clouds
571,Ban Nahin,LA,18.2418,104.2122,73.94 F,97.00%,45.00%,3.24,scattered clouds
572,Yatou,CN,37.15,122.3833,74.26 F,90.00%,100.00%,20.11,moderate rain
573,Nassjo,SE,57.6531,14.6968,56.32 F,74.00%,100.00%,13.73,light rain
574,Sahuaripa,MX,29.05,-109.2333,89.94 F,25.00%,1.00%,4.21,clear sky
575,Nushki,PK,29.5542,66.0215,68.61 F,18.00%,12.00%,0.85,few clouds
576,Port Macquarie,AU,-31.4333,152.9167,57.16 F,67.00%,54.00%,7.11,broken clouds
577,Andros Town,BS,24.7,-77.7667,85.96 F,63.00%,17.00%,16.11,few clouds
578,Katobu,ID,-4.9408,122.5276,73.90 F,92.00%,33.00%,1.5,scattered clouds
579,Nageshwari,BD,25.9377,89.7148,78.15 F,90.00%,43.00%,6.33,scattered clouds
580,Baie-Saint-Paul,CA,47.4411,-70.4986,61.29 F,83.00%,57.00%,8.99,broken clouds
581,Shenjiamen,CN,29.9576,122.298,76.91 F,88.00%,0.00%,17.09,clear sky
582,Babstovo,RU,48.1167,132.4833,41.09 F,88.00%,99.00%,4.92,overcast clouds
583,Fremont,US,37.5483,-121.9886,88.88 F,42.00%,1.00%,6.91,clear sky
584,Slavuta,UA,50.3016,26.8651,50.47 F,57.00%,76.00%,8.86,broken clouds
585,Ulagan,RU,50.6321,87.9563,23.76 F,67.00%,76.00%,3.2,broken clouds
586,Santa Maria,BR,-29.6842,-53.8069,72.70 F,68.00%,40.00%,3.44,scattered clouds
587,Ballina,AU,-28.8667,153.5667,59.77 F,100.00%,18.00%,0.0,few clouds
588,Oranjemund,NA,-28.55,16.4333,55.58 F,74.00%,0.00%,26.69,clear sky
589,Bow Island,CA,49.8668,-111.3684,70.63 F,23.00%,72.00%,9.22,broken clouds
590,Gat,IL,31.61,34.7642,77.68 F,69.00%,38.00%,7.58,scattered clouds
591,Serowe,BW,-22.3833,26.7167,75.40 F,12.00%,0.00%,7.92,clear sky
592,Kincardine,GB,56.0667,-3.7167,53.51 F,84.00%,69.00%,13.22,broken clouds
593,Ust-Nera,RU,64.5667,143.2,22.91 F,92.00%,29.00%,3.22,scattered clouds
594,Ihosy,MG,-22.4,46.1167,70.27 F,72.00%,57.00%,7.34,broken clouds
595,Ghanzi,BW,-21.5667,21.7833,69.21 F,10.00%,0.00%,9.62,clear sky
596,Birao,CF,10.2849,22.7882,79.38 F,62.00%,44.00%,3.02,scattered clouds
597,Odienne,CI,9.51,-7.5692,79.18 F,77.00%,35.00%,1.63,light rain
598,Mayna,RU,54.1135,47.6231,44.60 F,87.00%,100.00%,4.45,overcast clouds
599,Santa Isabel Do Rio Negro,BR,-0.4139,-65.0192,91.74 F,50.00%,95.00%,2.08,overcast clouds
600,Talaya,RU,61.3833,152.75,23.92 F,95.00%,100.00%,7.05,overcast clouds
601,Sovetsk,RU,55.0839,21.8785,54.50 F,66.00%,92.00%,13.18,overcast clouds
602,Orahovac,XK,42.3994,20.6547,58.86 F,54.00%,98.00%,1.21,overcast clouds
603,Dezhou,CN,37.4486,116.2925,67.39 F,97.00%,100.00%,8.95,light rain
604,Luau,AO,-10.7073,22.2247,70.92 F,78.00%,69.00%,4.0,moderate rain
605,Kroya,ID,-7.6331,109.2461,77.20 F,81.00%,68.00%,4.56,broken clouds
606,Onguday,RU,50.75,86.15,30.29 F,71.00%,100.00%,3.53,overcast clouds
607,Mahibadhoo,MV,3.7833,72.9667,82.85 F,77.00%,13.00%,17.54,few clouds
608,Aradippou,CY,34.95,33.5917,77.40 F,43.00%,0.00%,4.0,clear sky
609,Namibe,AO,-15.1961,12.1522,62.38 F,80.00%,5.00%,6.35,clear sky
610,Meulaboh,ID,4.1363,96.1285,75.36 F,85.00%,3.00%,4.07,clear sky
611,Bat Khela,PK,34.6167,71.9714,73.35 F,72.00%,0.00%,4.83,clear sky
612,Kedrovyy,RU,56.1667,91.8167,23.41 F,86.00%,90.00%,2.19,overcast clouds
613,Jiancheng,CN,30.391,104.5491,81.61 F,93.00%,99.00%,9.24,overcast clouds
614,Uren,RU,57.4552,45.7852,41.41 F,94.00%,97.00%,3.94,overcast clouds
615,Ishigaki,JP,24.3448,124.1572,82.94 F,69.00%,8.00%,19.57,clear sky
616,Millau,FR,44.0833,2.9167,56.39 F,97.00%,100.00%,2.98,overcast clouds
617,Kodinsk,RU,58.6881,99.1844,29.48 F,96.00%,73.00%,3.53,broken clouds
618,Manado,ID,1.487,124.8455,75.97 F,94.00%,40.00%,1.14,scattered clouds
619,Road Town,VG,18.4167,-64.6167,89.64 F,62.00%,40.00%,12.66,scattered clouds
620,Erzin,TR,36.9559,36.2,75.72 F,63.00%,0.00%,4.27,clear sky
621,Eureka,US,40.8021,-124.1637,58.39 F,64.00%,73.00%,5.55,broken clouds
622,Rio Gallegos,AR,-51.6226,-69.2181,59.05 F,25.00%,75.00%,34.52,broken clouds
623,Moissala,TD,8.3404,17.7663,75.04 F,89.00%,49.00%,3.2,scattered clouds
624,Aykino,RU,62.2248,49.9922,39.29 F,84.00%,100.00%,3.02,overcast clouds
625,Svetlaya,RU,46.5389,138.3297,53.83 F,80.00%,41.00%,3.53,scattered clouds
626,Tigil,RU,57.8,158.6667,41.94 F,92.00%,100.00%,16.46,light rain
627,Staritsa,RU,56.5075,34.9354,37.71 F,82.00%,100.00%,4.45,light rain
628,Vuktyl,RU,63.8567,57.3094,31.35 F,84.00%,52.00%,0.89,broken clouds
629,Tecoanapa,MX,16.5167,-98.75,85.60 F,65.00%,50.00%,7.2,scattered clouds
630,Quelimane,MZ,-17.8786,36.8883,80.55 F,74.00%,0.00%,13.0,clear sky
631,Hagerstown,US,39.6418,-77.72,85.24 F,61.00%,1.00%,7.0,clear sky
632,Danielskuil,ZA,-28.1887,23.5395,56.07 F,17.00%,0.00%,8.25,clear sky
633,Sinjai,ID,-5.1241,120.253,73.81 F,87.00%,42.00%,3.13,scattered clouds
634,Bobo Dioulasso,BF,11.1771,-4.2979,90.05 F,55.00%,20.00%,5.75,few clouds
635,Ajdabiya,LY,30.7554,20.2263,73.67 F,56.00%,0.00%,10.38,clear sky
636,Nizhniy Chir,RU,48.3597,43.0865,52.03 F,44.00%,74.00%,10.42,broken clouds
637,Collie,AU,-33.3667,116.15,40.98 F,88.00%,61.00%,2.44,broken clouds
638,Okhotsk,RU,59.3833,143.3,32.43 F,73.00%,3.00%,21.34,clear sky
639,Faya,SA,18.3851,42.4509,68.11 F,54.00%,98.00%,5.41,overcast clouds
640,Birjand,IR,32.8663,59.2211,61.27 F,25.00%,0.00%,6.91,clear sky
641,Barentu,ER,15.1139,37.5928,82.53 F,45.00%,54.00%,3.38,broken clouds
642,Lethem,GY,3.3803,-59.7968,90.00 F,53.00%,56.00%,5.79,broken clouds
643,Turan,VN,16.0678,108.2208,80.58 F,83.00%,20.00%,0.0,few clouds
644,Lamont,US,35.2597,-118.9143,93.47 F,26.00%,0.00%,4.56,clear sky
645,Hengyang,CN,26.8881,112.615,82.72 F,62.00%,3.00%,5.08,clear sky
646,Wanaka,NZ,-44.7,169.15,50.11 F,79.00%,100.00%,1.01,overcast clouds
647,Zabaykalsk,RU,49.6333,117.3167,37.47 F,59.00%,99.00%,4.38,overcast clouds
648,La Baule-Escoublac,FR,47.2922,-2.364,59.88 F,78.00%,0.00%,14.36,clear sky
649,Tocopilla,CL,-22.092,-70.1979,66.36 F,65.00%,15.00%,10.36,few clouds
650,Karasjok,NO,69.4719,25.5112,50.11 F,74.00%,100.00%,24.74,overcast clouds
651,Graciano Sanchez,MX,23.9167,-99.2833,84.29 F,60.00%,90.00%,5.44,overcast clouds
652,Bodden Town,KY,19.2833,-81.25,89.60 F,58.00%,20.00%,10.36,few clouds
653,Samarai,PG,-10.6167,150.6667,79.61 F,83.00%,93.00%,3.83,overcast clouds
654,Beatrice,US,40.2681,-96.747,77.74 F,33.00%,1.00%,11.5,clear sky
655,Baturaja,ID,-4.1333,104.1667,75.36 F,90.00%,95.00%,0.6,overcast clouds
656,Ayagoz,KZ,47.9714,80.4392,38.95 F,59.00%,100.00%,5.5,overcast clouds
657,Tual,ID,-5.6667,132.75,80.80 F,65.00%,100.00%,6.13,overcast clouds
658,Capinopolis,BR,-18.6819,-49.5697,97.99 F,24.00%,33.00%,7.4,scattered clouds
659,Itaporanga,BR,-7.3044,-38.1503,99.12 F,16.00%,2.00%,6.31,clear sky
660,Masarayao,PH,11.0897,124.6175,73.18 F,94.00%,100.00%,2.26,heavy intensity rain
661,Tilichiki,RU,60.4667,166.1,37.53 F,94.00%,100.00%,18.57,light rain
662,Vangaindrano,MG,-23.35,47.6,71.29 F,90.00%,17.00%,9.37,few clouds
663,Kaeo,NZ,-35.1,173.7833,62.33 F,97.00%,100.00%,11.88,overcast clouds
664,Belmonte,BR,-15.8631,-38.8828,84.20 F,69.00%,20.00%,13.0,few clouds
665,Djambala,CG,-2.5447,14.7533,72.18 F,80.00%,75.00%,2.24,broken clouds
666,Provideniya,RU,64.3833,-173.3,25.48 F,78.00%,85.00%,2.53,overcast clouds
667,Takoradi,GH,4.8845,-1.7554,78.48 F,88.00%,99.00%,9.93,overcast clouds
668,Mackay,AU,-21.15,149.2,75.18 F,88.00%,8.00%,11.5,clear sky
669,Clinton,US,42.587,-82.9199,74.97 F,92.00%,90.00%,4.61,mist
670,Kysyl-Syr,RU,63.8986,122.7617,27.01 F,74.00%,22.00%,2.89,few clouds
671,Forio,IT,40.7342,13.8646,72.32 F,81.00%,5.00%,8.61,clear sky
672,Kamenka,RU,51.3223,42.7678,47.14 F,64.00%,48.00%,7.61,scattered clouds
673,Semey,KZ,50.4111,80.2275,42.04 F,51.00%,100.00%,8.1,overcast clouds
674,Hanting,CN,36.7708,119.2108,71.91 F,97.00%,100.00%,2.53,moderate rain
675,Taicheng,CN,38.731,113.228,55.80 F,84.00%,100.00%,6.26,overcast clouds
676,Romny,UA,50.751,33.4747,47.23 F,57.00%,3.00%,6.91,clear sky
677,Porvoo,FI,60.3923,25.6651,53.96 F,91.00%,86.00%,13.02,overcast clouds
678,Avera,US,33.194,-82.5271,85.91 F,42.00%,66.00%,2.42,broken clouds
679,Qaqortoq,GL,60.7167,-46.0333,45.07 F,54.00%,1.00%,8.66,clear sky
680,Akdepe,TM,42.0551,59.3788,50.09 F,51.00%,1.00%,11.03,clear sky
681,Gedo,ET,9.0167,37.45,52.75 F,90.00%,89.00%,0.72,light rain
682,Waddan,LY,29.1614,16.139,82.42 F,28.00%,0.00%,6.89,clear sky
683,Churapcha,RU,62.0025,132.4325,25.81 F,91.00%,34.00%,5.57,scattered clouds
684,Melendugno,IT,40.2747,18.3368,73.06 F,72.00%,37.00%,8.88,scattered clouds
685,Ondjiva,AO,-17.0667,15.7333,76.75 F,13.00%,20.00%,3.42,few clouds
686,Llangefni,GB,53.2556,-4.3106,56.98 F,72.00%,20.00%,20.71,moderate rain
687,Hualmay,PE,-11.0964,-77.6139,67.03 F,71.00%,59.00%,12.39,broken clouds
688,Guanare,VE,9.0418,-69.7421,73.42 F,100.00%,72.00%,10.36,broken clouds
689,Shaowu,CN,27.3409,117.4831,69.12 F,82.00%,0.00%,3.2,clear sky
690,Raver,IN,21.25,76.0333,79.70 F,83.00%,99.00%,2.46,overcast clouds
691,Vulcan,RO,45.3833,23.2667,45.43 F,63.00%,0.00%,2.75,clear sky
692,Nizhniy Kuranakh,RU,58.8353,125.4869,20.37 F,97.00%,27.00%,3.24,scattered clouds
693,Amapa,BR,1.0,-52.0,88.86 F,44.00%,100.00%,3.11,overcast clouds
694,Tomar Do Geru,BR,-11.3733,-37.8406,86.74 F,40.00%,31.00%,15.05,scattered clouds
695,Tongren,CN,27.7172,109.1853,74.26 F,76.00%,0.00%,2.86,clear sky
696,Tautira,PF,-17.7333,-149.15,78.82 F,77.00%,28.00%,7.74,light rain
697,Akhisar,TR,38.9185,27.8401,57.83 F,59.00%,0.00%,9.19,clear sky
698,Mackenzie,CA,55.2999,-123.1698,39.42 F,60.00%,90.00%,5.75,overcast clouds
699,Tema,GH,5.667,-0.0166,84.61 F,70.00%,20.00%,14.97,few clouds
700,Champerico,GT,14.3,-91.9167,90.77 F,74.00%,24.00%,6.69,few clouds
701,Ilulissat,GL,69.2167,-51.1,24.31 F,75.00%,86.00%,3.2,overcast clouds
702,Bor,RU,56.3567,44.0669,44.53 F,79.00%,100.00%,3.13,overcast clouds
703,Caraballeda,VE,10.6112,-66.8522,91.47 F,66.00%,40.00%,8.05,scattered clouds
